[{"id":"4f328ea619836c91c7e3714a","latitude":40.794855,"longitude":-73.966069,"name":"chen jin diao restaurant","phone":"2126784680","postal_code":"","street_address":"800 columbus ave","website":""},{"id":"4c37b5f6ae2da593a56affc5","latitude":40.760459851,"longitude":-73.9949199012,"name":"west side steakhouse","phone":"2125644803","postal_code":"10036","street_address":"597 10th ave","website":""},{"id":"4b41060df964a52098bf25e3","latitude":40.7602490397,"longitude":-73.9837461524,"name":"pearls chinese  szechuan cuisine","phone":"2125827380","postal_code":"10019","street_address":"732 7th ave","website":""},{"id":"3fd66200f964a520ece41ee3","latitude":40.7086595385,"longitude":-74.0112632766,"name":"suspenders","phone":"2127325005","postal_code":"10006","street_address":"111 broadway","website":"suspendersnyc.com"},{"id":"52064aab11d284f64d088329","latitude":40.7181050724,"longitude":-73.9960963494,"name":"grand century cafe","phone":"","postal_code":"","street_address":"","website":""},{"id":"40ede000f964a5203c0a1fe3","latitude":40.785675637,"longitude":-73.9845085144,"name":"boat basin caf\u00e9","phone":"2124965542","postal_code":"10024","street_address":"390 w 79th st","website":""},{"id":"49c406a8f964a5208d561fe3","latitude":40.7462790633,"longitude":-73.9979499581,"name":"brooklyn bagel  coffee co","phone":"2129242824","postal_code":"10001","street_address":"286 8th ave","website":"brooklynbagelandcoffeecompany.com\/ordereze\/default.aspx?flash=true"},{"id":"5177d30c498e9b657328e30f","latitude":40.793718,"longitude":-73.967123,"name":"coffee cart   97th  columbus","phone":"","postal_code":"10025","street_address":"w 97th st","website":""},{"id":"4edfa9edd5fbc1bbdd9b43c8","latitude":40.7848348568,"longitude":-73.9475744963,"name":"johnny bananas","phone":"","postal_code":"10128","street_address":"231 e 96th st apt 6r","website":""},{"id":"51cb0e7d498e5a55996ed389","latitude":40.8209185221,"longitude":-73.9364614492,"name":"jimbos","phone":"2124918680","postal_code":"10037","street_address":"535 malcolm x blvd","website":""},{"id":"49d10756f964a520535b1fe3","latitude":40.718717,"longitude":-74.005172,"name":"neighborhood gourmet eatery","phone":"2123437390","postal_code":"10013","street_address":"275 church st","website":""},{"id":"4b2137b7f964a5206e3824e3","latitude":40.7077707419,"longitude":-74.0059036296,"name":"cafe gusto","phone":"2127912700","postal_code":"10038","street_address":"111 john st","website":"cafegustonyc.com"},{"id":"4ddec43a1f6e0369474b6fae","latitude":40.704549,"longitude":-74.01018,"name":"amstel light bier market on stone street","phone":"","postal_code":"","street_address":"stone st","website":""},{"id":"4b6cbbe0f964a52025502ce3","latitude":40.7394640071,"longitude":-74.0058003373,"name":"red market salon","phone":"2129299600","postal_code":"10014","street_address":"32 gansevoort st","website":"redmarketnyc.com"},{"id":"4fec9a47e4b0d8e5c86e760c","latitude":40.726198828,"longitude":-74.0054101214,"name":"illy free coffee truck","phone":"","postal_code":"10014","street_address":"","website":""},{"id":"4f5161ece4b0c41603433934","latitude":40.777919,"longitude":-73.982112,"name":"cafe 72nd","phone":"","postal_code":"10023","street_address":"","website":""},{"id":"4ada0a62f964a520a91d21e3","latitude":40.798136759,"longitude":-73.9693518913,"name":"broadway restaurant","phone":"2128657074","postal_code":"10025","street_address":"2664 broadway","website":""},{"id":"4f321f3a19836c91c7b829e3","latitude":40.747799,"longitude":-73.989098,"name":"tasti d lite","phone":"2127442200","postal_code":"","street_address":"101 w 31st st","website":""},{"id":"507a3201e4b00760cb5e7f12","latitude":40.7221061593,"longitude":-73.9966357916,"name":"free meats cheeses","phone":"","postal_code":"10012","street_address":"","website":""},{"id":"4a62a16bf964a52066c41fe3","latitude":40.7057910547,"longitude":-73.9370412419,"name":"the mckibbin lofts","phone":"","postal_code":"11206","street_address":"248 mckibbin st","website":""},{"id":"44c23335f964a520c0351fe3","latitude":40.7499737986,"longitude":-73.9901853413,"name":"blarney rock pub","phone":"2129470825","postal_code":"10001","street_address":"137 w 33rd st","website":""},{"id":"51c99e8e011ce20210841df0","latitude":40.7779091855,"longitude":-73.9568066597,"name":"davemans house of pancakes","phone":"","postal_code":"10028","street_address":"1240 lexington ave","website":""},{"id":"4bb694a1941ad13a08b11fe3","latitude":40.7487443932,"longitude":-74.0032088757,"name":"pizza  cafe","phone":"","postal_code":"","street_address":"10th ave","website":""},{"id":"51bb39d77dd2ab9f2ed9f601","latitude":40.7267221477,"longitude":-73.9858818054,"name":"sushi dojo","phone":"","postal_code":"10003","street_address":"110 1st ave","website":""},{"id":"5094980e19a9c415175d8069","latitude":40.7637143806,"longitude":-73.9885210991,"name":"1 dollar pizza","phone":"","postal_code":"10019","street_address":"748 9th ave","website":""},{"id":"4f44b4c119836ed00195f96e","latitude":40.7962,"longitude":-73.935402,"name":"delightful restaurant","phone":"2128766224","postal_code":"","street_address":"2258 1st ave","website":""},{"id":"4f32811519836c91c7de3fef","latitude":40.752672,"longitude":-73.97301,"name":"z lounge","phone":"2129498999","postal_code":"","street_address":"203 e 45th st","website":""},{"id":"4f322c3419836c91c7bd5236","latitude":40.736043,"longitude":-73.991322,"name":"marco polo kitchen","phone":"2126470015","postal_code":"","street_address":"15 e 15th st","website":"marcopolocaterers.com"},{"id":"4ffc6671e4b0565afdc11023","latitude":40.752977,"longitude":-73.987078,"name":"domotaco truck","phone":"","postal_code":"10018","street_address":"38th  broadway","website":""},{"id":"4e6e36cab0fb62b778929564","latitude":40.713690194,"longitude":-74.0010143988,"name":"500 pearl st cafeteria","phone":"","postal_code":"","street_address":"","website":""},{"id":"3fd66200f964a5209eea1ee3","latitude":40.7567757081,"longitude":-73.9806871751,"name":"via brasil","phone":"2129971158","postal_code":"10036","street_address":"34 w 46th st","website":""},{"id":"510d5cfce4b0b559314c6188","latitude":40.7565765381,"longitude":-73.967300415,"name":"mariachi","phone":"2123191045","postal_code":"10022","street_address":"235 e 53rd st","website":""},{"id":"50b2e6a8e4b07a713e001a02","latitude":40.73851,"longitude":-74.00407,"name":"ashtons lair","phone":"","postal_code":"10014","street_address":"","website":""},{"id":"4e2108b4091a49c13e11ee57","latitude":40.7156473013,"longitude":-74.0069854259,"name":"fanno winebar2","phone":"","postal_code":"","street_address":"","website":""},{"id":"4f321e9419836c91c7b7e3ae","latitude":40.840483,"longitude":-73.936481,"name":"foo sing chinese restaurant","phone":"2125680689","postal_code":"","street_address":"2200 amsterdam ave","website":""},{"id":"4b5203eff964a520756127e3","latitude":40.712143,"longitude":-73.997316,"name":"great taste bakery","phone":"","postal_code":"10013","street_address":"35 catherine st","website":""},{"id":"4f170983e4b0725ff0fdbf91","latitude":40.74125,"longitude":-74.002951,"name":"fresh direct 9th floor","phone":"","postal_code":"10011","street_address":"76 9th ave","website":""},{"id":"43ece77ff964a520482f1fe3","latitude":40.7392584061,"longitude":-73.988134861,"name":"via emilia","phone":"2125053072","postal_code":"10010","street_address":"47 e 21st st","website":"viaemilianyc.net"},{"id":"4f438c2119834bc91f577065","latitude":40.769561,"longitude":-73.980838,"name":"conservatory restaurant","phone":"2125811293","postal_code":"","street_address":"15 central park w","website":""},{"id":"4fe50036e4b0227bdfd43a46","latitude":40.7732171767,"longitude":-73.9842626729,"name":"cafe espresso","phone":"","postal_code":"10023","street_address":"lincoln center","website":""},{"id":"4dfb781362846078953372a6","latitude":40.7981295653,"longitude":-73.9697651387,"name":"broadway diner","phone":"","postal_code":"10025","street_address":"103rd and broadway","website":""},{"id":"4ba7ab15f964a520fda739e3","latitude":40.72333,"longitude":-73.998317,"name":"peep insights  revelations","phone":"9175953450","postal_code":"10012","street_address":"536 broadway 11th fl","website":""},{"id":"4dee9f25fa761efc37a0d1a4","latitude":40.7348869875,"longitude":-73.988683,"name":"littletown","phone":"","postal_code":"","street_address":"","website":""},{"id":"49ff7bcef964a5202a701fe3","latitude":40.7290962508,"longitude":-73.9888644218,"name":"mamouns falafel","phone":"2123877747","postal_code":"10003","street_address":"22 saint marks pl","website":""},{"id":"4f11dca2e4b0d3f8a5e661ca","latitude":40.7510870883,"longitude":-74.0020530839,"name":"gastromarket","phone":"2126958080","postal_code":"10001","street_address":"315 10th ave","website":"gastromarket.com"},{"id":"4a92f60df964a520521e20e3","latitude":40.8096,"longitude":-73.958864,"name":"panino sportivo roma","phone":"2126622066","postal_code":"10027","street_address":"1231 amsterdam ave","website":"paninosportivo.com"},{"id":"4f325a9219836c91c7cf79a2","latitude":40.714078,"longitude":-73.990062,"name":"a and k news and candy store","phone":"6232782929","postal_code":"","street_address":"162 e broadway","website":""},{"id":"4f4cefcbe4b088c4ada2896c","latitude":40.8237046136,"longitude":-73.9413867616,"name":"true blue deli grocery","phone":"","postal_code":"10039","street_address":"2741 8th ave  ny 10039","website":""},{"id":"51850c93498e95d7e8d90a6a","latitude":40.731548,"longitude":-73.982532,"name":"fruit stand","phone":"","postal_code":"","street_address":"1st ave between 14th and 15th","website":""},{"id":"51a81c2d498e9bf0ab483c55","latitude":40.801888,"longitude":-73.945601,"name":"smelly corner bodega","phone":"","postal_code":"","street_address":"","website":""},{"id":"40f47780f964a5209b0a1fe3","latitude":40.7203799258,"longitude":-73.9968710797,"name":"grotta azzurra","phone":"2129258775","postal_code":"10013","street_address":"177 mulberry st","website":"bluegrotta.com"},{"id":"51d4fdea498eef3555473a4d","latitude":40.718578,"longitude":-73.960793,"name":"the plank","phone":"","postal_code":"","street_address":"216 bedford ave","website":""},{"id":"51c756c6498e7b8d56fa85ae","latitude":40.720329,"longitude":-73.9969,"name":"pats bar","phone":"","postal_code":"","street_address":"","website":""},{"id":"4edcf6439adfe5cbe23614ec","latitude":40.7329598825,"longitude":-73.9905009823,"name":"edward lll absinthe bar at webster hall","phone":"","postal_code":"10003","street_address":"125 e 11th st","website":""},{"id":"508bdacbe4b0f6951defb28d","latitude":40.759784,"longitude":-73.983538,"name":"doble tree executive lounge","phone":"","postal_code":"10019","street_address":"","website":""},{"id":"4ecc6b86f7908e99a1392495","latitude":40.736974,"longitude":-73.993832,"name":"karps pad","phone":"","postal_code":"10011","street_address":"10 west 15th st","website":""},{"id":"4eb5fe456c2590eb885238c8","latitude":40.7137896387,"longitude":-73.9953847426,"name":"dark disco","phone":"","postal_code":"10002","street_address":"","website":""},{"id":"51c9e1dd498e33ecd8670892","latitude":40.7300068198,"longitude":-73.991243101,"name":"starbucks","phone":"","postal_code":"","street_address":"","website":""},{"id":"44dc96e4f964a520b0361fe3","latitude":40.7282832113,"longitude":-73.9955914021,"name":"think coffee","phone":"2122286226","postal_code":"10012","street_address":"248 mercer st","website":"thinkcoffeenyc.com"},{"id":"4a3ac46cf964a52035a01fe3","latitude":40.753397,"longitude":-73.986005,"name":"dong hai grill","phone":"2122217237","postal_code":"10018","street_address":"108 w 39th st","website":""},{"id":"5032d9afe4b0a4a97864b2b2","latitude":40.760191,"longitude":-73.995379,"name":"casa de o face","phone":"","postal_code":"10036","street_address":"","website":""},{"id":"51319488e4b042482ea5f6ff","latitude":40.714303,"longitude":-74.00781,"name":"22 warren","phone":"","postal_code":"10007","street_address":"","website":""},{"id":"5197cb46498eccd5b2968052","latitude":40.768263,"longitude":-73.981822,"name":"bouchonn","phone":"","postal_code":"","street_address":"","website":""},{"id":"5213a9d811d2b5e39bdf3a3f","latitude":40.7174492905,"longitude":-73.9996084349,"name":"tjs coffee world","phone":"2129660187","postal_code":"","street_address":"228 canal st","website":""},{"id":"4d5ed2a9196ba09393620656","latitude":40.7409504202,"longitude":-73.9879127111,"name":"the crepes truck","phone":"","postal_code":"10010","street_address":"6 e 23rd st","website":""},{"id":"506fc5f6e4b0184b5ae01a83","latitude":40.7277899794,"longitude":-74.0053355212,"name":"le poisson rouge","phone":"","postal_code":"10014","street_address":"","website":""},{"id":"4e440fb7628485fd4c5b6b41","latitude":40.702656,"longitude":-74.009934,"name":"el gringo","phone":"","postal_code":"10041","street_address":"water st","website":""},{"id":"51aa70b5498eb91d32bc1654","latitude":40.728365,"longitude":-73.985277,"name":"the immigrant tap room","phone":"","postal_code":"","street_address":"341 east 9th st","website":""},{"id":"3fd66200f964a520aae61ee3","latitude":40.7172492837,"longitude":-74.0105554461,"name":"gigino trattoria","phone":"2124311112","postal_code":"10013","street_address":"323 greenwich st","website":"gigino-trattoria.com"},{"id":"4ff503ece4b054fba983af0e","latitude":40.726755,"longitude":-73.987169,"name":"2 swords tavern","phone":"","postal_code":"10003","street_address":"330 e 6th st","website":""},{"id":"518d3d80498eda07d0c91211","latitude":40.761314,"longitude":-73.975823,"name":"leons hot dog stand","phone":"","postal_code":"","street_address":"","website":""},{"id":"4bc9cb2c68f976b06dd55d83","latitude":40.7308847117,"longitude":-73.9828910211,"name":"build a green bakery","phone":"","postal_code":"","street_address":"223 1st ave 1st fl","website":""},{"id":"4ad8ebc1f964a520001621e3","latitude":40.767994,"longitude":-73.958998,"name":"giorgios brick oven and wine bar","phone":"2126288419","postal_code":"10021","street_address":"1343 2nd ave","website":"giorgiosbrickovennyc.com"},{"id":"4bed6f823372c92858991114","latitude":40.7068641749,"longitude":-74.0128970146,"name":"traders cafe","phone":"","postal_code":"10004","street_address":"exchange pl","website":""},{"id":"4e1a1f3ed1648b834842ba9f","latitude":40.7681119849,"longitude":-73.9739512643,"name":"wollman smoothie","phone":"","postal_code":"10019","street_address":"","website":""},{"id":"50ca5d56e4b0a8af7601e857","latitude":40.842389,"longitude":-73.935488,"name":"pepes pizza","phone":"","postal_code":"10032","street_address":"","website":""},{"id":"4dbba016f7b1ab37dd4a62c4","latitude":40.6766115,"longitude":-73.855748,"name":"wifeys fried chicken spot","phone":"","postal_code":"11208","street_address":"543 linden blvd","website":""},{"id":"4f32406819836c91c7c52b7b","latitude":40.777802,"longitude":-73.9785,"name":"sqc food production","phone":"2125790433","postal_code":"","street_address":"270 columbus ave","website":""},{"id":"4f322d3619836c91c7bdb31c","latitude":40.768443,"longitude":-73.989048,"name":"m b j food services","phone":"2125822144","postal_code":"","street_address":"500 w 56th st","website":""},{"id":"4f138953e4b0d3f8a7978dbd","latitude":40.745552063,"longitude":-73.9780654907,"name":"chez van damm","phone":"","postal_code":"10016","street_address":"","website":""},{"id":"4f4d2593e4b00b42c3f1060f","latitude":40.7145875249,"longitude":-74.0059151065,"name":"potbelly sandwich shop","phone":"6462894206","postal_code":"10007","street_address":"280 broadway","website":"potbelly.com"},{"id":"4a91cdccf964a520e01b20e3","latitude":40.7593029335,"longitude":-73.9678251641,"name":"deliteria deli","phone":"","postal_code":"","street_address":"1061 2nd ave","website":""},{"id":"5012c83be4b0be9af4acb97e","latitude":40.7552257087,"longitude":-73.9887678201,"name":"hale  hearty soup","phone":"6467819005","postal_code":"10018","street_address":"213 w 40th st","website":""},{"id":"4e4078922271a89dd083d07e","latitude":40.7750973268,"longitude":-73.9508237235,"name":"felice 83","phone":"2122494080","postal_code":"10028","street_address":"1593 1st ave","website":"felicewinebar.com"},{"id":"4a5d0bf5f964a52017bd1fe3","latitude":40.716351,"longitude":-73.998128,"name":"singapore cafe","phone":"2129640003","postal_code":"10013","street_address":"69 mott st","website":""},{"id":"4d39d3a4039eb60c288fe59c","latitude":40.750573,"longitude":-73.986006,"name":"mikes pizzeria  cafe","phone":"6469987573","postal_code":"","street_address":"35 w 36th st","website":""},{"id":"4a90dbbef964a520a11920e3","latitude":40.7727661667,"longitude":-73.9524481662,"name":"italian village pizzeria","phone":"2125355950","postal_code":"10075","street_address":"1526 1st ave","website":""},{"id":"51f94587498e240e6f3877e6","latitude":40.74865,"longitude":-73.987431,"name":"fork and spoon","phone":"","postal_code":"","street_address":"","website":""},{"id":"4c192d8998f4a593cdaffff5","latitude":40.71558,"longitude":-73.939031,"name":"house of nugz","phone":"","postal_code":"11211","street_address":"90 olive st","website":""},{"id":"5165b8c2e4b07a7ad83917be","latitude":40.7107110839,"longitude":-74.0114985467,"name":"the coffee bean  tea leaf","phone":"","postal_code":"","street_address":"22 cortlandt st","website":""},{"id":"4c140c40a9c220a143ed569d","latitude":40.744465897,"longitude":-73.9826384984,"name":"555 club","phone":"","postal_code":"10016","street_address":"111 e 30th st","website":""},{"id":"4f32396219836c91c7c264ff","latitude":40.731382,"longitude":-74.00651,"name":"campbell caters glen campbell","phone":"2128071726","postal_code":"","street_address":"456 hudson st","website":""},{"id":"50eb22d972dac3210ff5a23e","latitude":40.7495002877,"longitude":-73.9777493477,"name":"grouper social club at court bar","phone":"6468013616","postal_code":"10016","street_address":"130 east 39th st","website":""},{"id":"4f5bd2d3e4b085f52da244c0","latitude":40.754256506,"longitude":-73.992526811,"name":"party loft nyc","phone":"","postal_code":"10018","street_address":"302 w 37th st","website":""},{"id":"4b8a1c34f964a5205d6032e3","latitude":40.7240065074,"longitude":-73.988096359,"name":"village restaurant  pizza","phone":"2126775500","postal_code":"10003","street_address":"35 first ave","website":""},{"id":"50310559e4b0adcbed6480c5","latitude":40.7612834421,"longitude":-73.9697995759,"name":"starbucks 116 east 57","phone":"","postal_code":"10022","street_address":"","website":""},{"id":"4bba18d11261d13adc36ea98","latitude":40.7055758379,"longitude":-74.0052896133,"name":"adels best 1 halal food cart","phone":"","postal_code":"10038","street_address":"maiden ln  front st","website":""},{"id":"3fd66200f964a52008e91ee3","latitude":40.736827,"longitude":-73.986909,"name":"71 irving place coffee  tea bar","phone":"2129955252","postal_code":"10003","street_address":"71 irving pl","website":"71irvingplace.tumblr.com"},{"id":"50d0ff3be4b0faa0056674db","latitude":40.7445873664,"longitude":-74.0028277901,"name":"bocca di bacco","phone":"7144046491","postal_code":"10011","street_address":"169 9th ave","website":""},{"id":"4d40f0a6c1d4721e876515c7","latitude":40.766804,"longitude":-73.978747,"name":"deli food cart","phone":"","postal_code":"10018","street_address":"220","website":""},{"id":"4c0f98777189c928dc47dab6","latitude":40.745323,"longitude":-74.008687,"name":"chelsea pier cafe","phone":"","postal_code":"10011","street_address":"","website":""},{"id":"4f7334ef0cd6952d30830e32","latitude":40.7508413697,"longitude":-73.9922654629,"name":"tasti d lite","phone":"","postal_code":"10119","street_address":"1 penn plz","website":""},{"id":"521a96e811d25b1b31074bf4","latitude":40.801281,"longitude":-73.948826,"name":"mist harlem beer garden","phone":"","postal_code":"","street_address":"","website":""},{"id":"4b7c6881f964a52084912fe3","latitude":40.768578,"longitude":-73.989055,"name":"hanci turkish cuisine","phone":"2127078144","postal_code":"10019","street_address":"854 10th ave","website":"hanciturkishnyc.com"},{"id":"4a9c9100f964a5208f3720e3","latitude":40.7314630986,"longitude":-73.9827704989,"name":"papaya dog","phone":"6465477010","postal_code":"10003","street_address":"239 1st ave","website":""},{"id":"4e4e4909bd4101d0d7a6d85a","latitude":40.719374,"longitude":-74.009496,"name":"mai house","phone":"2129650170","postal_code":"10013","street_address":"186 franklin st","website":"myriadrestaurantgroup.com"},{"id":"4a704cebf964a52045d71fe3","latitude":40.768070534,"longitude":-73.9856630102,"name":"morning star restaurant","phone":"2122461593","postal_code":"10019","street_address":"879 9th ave","website":""},{"id":"4d8b5d55f607a093f02e1287","latitude":40.7912996667,"longitude":-73.9511662,"name":"roger deli house","phone":"2123694922","postal_code":"10029","street_address":"1490 madison ave","website":""},{"id":"49f773aaf964a520a26c1fe3","latitude":40.7759136757,"longitude":-73.9532058521,"name":"big daddys","phone":"2127172020","postal_code":"10028","street_address":"1596 2nd ave","website":"bigdaddysnyc.com"},{"id":"4ddf08fc813072807d471b58","latitude":40.7176792227,"longitude":-73.9881594879,"name":"night wine bar","phone":"","postal_code":"10002","street_address":"118 essex st","website":""},{"id":"4f8c422ce4b0abaa054c498d","latitude":40.75194,"longitude":-73.975469,"name":"le grand bistro","phone":"","postal_code":"10174","street_address":"","website":""},{"id":"4fbe6828e4b09976861dca54","latitude":40.7228825251,"longitude":-74.0058577219,"name":"juice pirate","phone":"","postal_code":"10013","street_address":"","website":""},{"id":"4ad0b65bf964a52048d920e3","latitude":40.751886168,"longitude":-73.9945239243,"name":"ricos pizza","phone":"","postal_code":"","street_address":"33rd st","website":""},{"id":"4f321e1419836c91c7b7ad7b","latitude":40.747101,"longitude":-73.985497,"name":"calvins redroom","phone":"2126840086","postal_code":"","street_address":"319 5th ave","website":""},{"id":"4f32442019836c91c7c6a43d","latitude":40.713529,"longitude":-73.994798,"name":"sojo trading","phone":"2127912819","postal_code":"","street_address":"67 e broadway","website":""},{"id":"51181e78e4b02a04c1deb01c","latitude":40.7459139474,"longitude":-73.9779782465,"name":"fatburger","phone":"","postal_code":"10016","street_address":"509 3rd ave","website":""},{"id":"50ea27dee4b0a168ba2a97c4","latitude":40.7944871049,"longitude":-73.9396531578,"name":"wallahs bodega","phone":"","postal_code":"10029","street_address":"","website":""},{"id":"51eb7eed498e401ec51196b6","latitude":40.75798,"longitude":-73.98122,"name":"halel cart","phone":"","postal_code":"","street_address":"","website":""},{"id":"4f32850319836c91c7dfc1be","latitude":40.755093,"longitude":-73.990906,"name":"enrico ferezi","phone":"2128681378","postal_code":"","street_address":"214 w 39th st","website":""},{"id":"50bf71f9e4b03b1879e6f733","latitude":40.743737862,"longitude":-73.9858581384,"name":"the kitchen at dramafever","phone":"","postal_code":"10016","street_address":"72 madison ave floor 12","website":""},{"id":"4e7a5f6d62e16841da48dabd","latitude":40.7226964886,"longitude":-74.0046985491,"name":"jimmy rooftop","phone":"","postal_code":"10013","street_address":"15 thompson st","website":""},{"id":"517af366e4b0f03468c26dfa","latitude":40.8074189865,"longitude":-73.9531656719,"name":"vintage harlem","phone":"","postal_code":"","street_address":"2235 frederick douglass blvd","website":""},{"id":"4ec75f079a52756c55902d9c","latitude":40.7839333539,"longitude":-73.944113425,"name":"510 east 86th street 18c","phone":"","postal_code":"10128","street_address":"","website":""},{"id":"4bf69897004ed13a65b342a0","latitude":40.71995,"longitude":-74.00626,"name":"myriad restaurant group","phone":"2122199500","postal_code":"10013","street_address":"249 west broadway suite 2e","website":""},{"id":"4f32596a19836c91c7cf0289","latitude":40.753644,"longitude":-73.974298,"name":"la cucina di antonio","phone":"2129535167","postal_code":"","street_address":"467 lexington ave","website":""},{"id":"4f321f3919836c91c7b8296a","latitude":40.742018,"longitude":-73.9829,"name":"kenara paan and magazine shop","phone":"2124811660","postal_code":"","street_address":"134 e 27th st","website":""},{"id":"4cb8fb8dadcd54815ae119a2","latitude":40.8254422394,"longitude":-73.9472189043,"name":"west side deli","phone":"","postal_code":"10031","street_address":"w 145th st","website":""},{"id":"51b77144498ea4246cc413f2","latitude":40.733511,"longitude":-74.002497,"name":"beemos castle","phone":"","postal_code":"","street_address":"","website":""},{"id":"505cccd8e4b06ee0cba4a47d","latitude":40.72807,"longitude":-74.003614,"name":"casa de putas","phone":"","postal_code":"10014","street_address":"","website":""},{"id":"4dca7fde1f6e28126777d908","latitude":40.77815,"longitude":-73.956299,"name":"coffee cart","phone":"","postal_code":"","street_address":"85th and lexington","website":""},{"id":"509d636d5d2463e871548042","latitude":40.7359605683,"longitude":-73.9894851904,"name":"tgi fridays","phone":"6465566381","postal_code":"10003","street_address":"34 union sq e","website":"tgifridays.com"},{"id":"4f6663ffe4b0746bea428a39","latitude":40.7381115175,"longitude":-74.0010316146,"name":"astleford lounge","phone":"","postal_code":"10011","street_address":"222 w 15th st  ny 10011","website":""},{"id":"4e4c3bc4bd413c4cc667d7c6","latitude":40.785946,"longitude":-73.976285,"name":"homers world famous malt shop","phone":"2124960777","postal_code":"10024","street_address":"487 amsterdam ave","website":"homersworldfamous.com"},{"id":"4c1436d57f7f2d7f8f95e068","latitude":40.71882,"longitude":-74.00511175,"name":"tribeca cafe","phone":"","postal_code":"10013","street_address":"277 church st","website":""},{"id":"44a14d7df964a520d0341fe3","latitude":40.7293345711,"longitude":-74.0036910027,"name":"ditch plains","phone":"2126330202","postal_code":"10014","street_address":"29 bedford st","website":"ditch-plains.com"},{"id":"4b70825df964a520e01e2de3","latitude":40.759062,"longitude":-73.961781,"name":"bistro vendome","phone":"2129359100","postal_code":"10022","street_address":"405 e 58th st","website":""},{"id":"3fd66200f964a520a6e31ee3","latitude":40.7270456973,"longitude":-73.9897204873,"name":"podunk","phone":"2126777722","postal_code":"10003","street_address":"231 e 5th st","website":""},{"id":"4f32381919836c91c7c1e081","latitude":40.703814,"longitude":-74.010493,"name":"teriyaki town","phone":"2127421919","postal_code":"","street_address":"77 pearl st","website":""},{"id":"50e2682fe4b05f45ac5c628f","latitude":40.800492,"longitude":-73.943412,"name":"random place in harlem","phone":"","postal_code":"10035","street_address":"","website":""},{"id":"4a7856dcf964a5206ce51fe3","latitude":40.714525,"longitude":-74.010127,"name":"bengal curry  kabab","phone":"2125711122","postal_code":"10007","street_address":"65 w broadway","website":"bengalcurrykebabnyc.com"},{"id":"4a95b175f964a5202a2420e3","latitude":40.756000308,"longitude":-73.9809913533,"name":"chipotle mexican grill","phone":"2123912081","postal_code":"10036","street_address":"25 w 45th st","website":"chipotle.com"},{"id":"4a1469e1f964a5203d781fe3","latitude":40.7188268145,"longitude":-74.0102475948,"name":"mary anns   tribeca","phone":"2127660911","postal_code":"10013","street_address":"353 greenwich st","website":""},{"id":"4bea99606295c9b6fc8e8608","latitude":40.822805565,"longitude":-73.9418077469,"name":"dunkin donuts","phone":"","postal_code":"10039","street_address":"2730 frederick douglass blvd","website":"dunkindonuts.com"},{"id":"51559bbae4b0e4124fa15f88","latitude":40.708807,"longitude":-74.006452,"name":"dino caf\u00e9","phone":"","postal_code":"","street_address":"chez stack exchange","website":""},{"id":"4ea73e7cb8034ce4bcc4b8d9","latitude":40.7553439562,"longitude":-73.9829206467,"name":"crave sandwiches","phone":"2123987070","postal_code":"10036","street_address":"1120 ave of americas","website":"facebook.com\/cravesandwiches"},{"id":"4f32923a19836c91c7e4c8d8","latitude":40.72296,"longitude":-74.011509,"name":"mirzos pizza","phone":"2129417161","postal_code":"","street_address":"264 west st","website":""},{"id":"4b0c8ce0f964a520243f23e3","latitude":40.729789,"longitude":-74.004241,"name":"trattoria toscana","phone":"2126758736","postal_code":"10014","street_address":"64 carmine st","website":""},{"id":"4b5ba6e1f964a520c50d29e3","latitude":40.76987,"longitude":-73.957567,"name":"big apple wine  spirits","phone":"2122882133","postal_code":"10021","street_address":"1408 2nd ave","website":""},{"id":"4f17f16fe4b0a0515bd70f0a","latitude":40.6438440237,"longitude":-73.7822732252,"name":"jambajuice","phone":"","postal_code":"11430","street_address":"john f kennedy international airport (jfk) jamaica ny 11430","website":""},{"id":"3fd66200f964a52092e31ee3","latitude":40.7205131372,"longitude":-73.985249797,"name":"azul bistro","phone":"2124779463","postal_code":"10002","street_address":"152 stanton st","website":"azulnyc.com"},{"id":"4be7a8b1d837c9b6ed79a406","latitude":40.8261504612,"longitude":-73.9503747225,"name":"el morocco","phone":"2122831788","postal_code":"10031","street_address":"3534 broadway","website":"elmorocconyc.com"},{"id":"4ba261cbf964a52050f337e3","latitude":40.74496293,"longitude":-73.9821621478,"name":"natureworks","phone":"2127251411","postal_code":"10016","street_address":"113 e 31st st","website":""},{"id":"4bedb6b1767dc9b6045cd3e9","latitude":40.8467219294,"longitude":-73.9357094383,"name":"el capri restaurant","phone":"2127403110","postal_code":"10033","street_address":"1342 saint nicholas ave","website":""},{"id":"4b983573f964a520523435e3","latitude":40.8009116662,"longitude":-73.9474427724,"name":"empire corner ii","phone":"2124105756","postal_code":"10029","street_address":"1415 5th ave","website":""},{"id":"4c685945f984a59382c349f4","latitude":40.86473107,"longitude":-73.926847,"name":"crown fried chicken","phone":"2125675333","postal_code":"10040","street_address":"200 dyckman st","website":""},{"id":"4e93a37b29c2e7c7fe50817d","latitude":40.73304,"longitude":-73.98659,"name":"pizzeria draga east village","phone":"2123980011","postal_code":"10003","street_address":"212 e 14th st","website":"yext.com"},{"id":"4f4487ee19836ed00194b706","latitude":40.750051,"longitude":-73.996213,"name":"subway","phone":"2122394212","postal_code":"","street_address":"1 penn plz","website":"subway.com"},{"id":"506b6162e4b02bda7fc846ee","latitude":40.7654136006,"longitude":-73.9572353137,"name":"yogurtland","phone":"","postal_code":"10065","street_address":"1275 1st ave","website":""},{"id":"4b17e419f964a52051c923e3","latitude":40.740784,"longitude":-74.000721,"name":"the grey dog","phone":"2122292345","postal_code":"10011","street_address":"242 w 16th st","website":""},{"id":"4c2a807d57a9c9b68a99f467","latitude":40.744688,"longitude":-74.003068,"name":"the penthouse","phone":"","postal_code":"10011","street_address":"400 w 20th st","website":""},{"id":"5010b169e4b05edd9983ec7d","latitude":40.7648213794,"longitude":-73.9171493442,"name":"antika","phone":"7185450555","postal_code":"11103","street_address":"36 08 30th ave","website":""},{"id":"4af73d00f964a520830722e3","latitude":40.7644229964,"longitude":-73.9809167436,"name":"starbucks","phone":"2125862142","postal_code":"10019","street_address":"870 7th ave","website":""},{"id":"4a7655b0f964a520dce21fe3","latitude":40.7142079238,"longitude":-73.9978471398,"name":"tasty hand pulled noodles inc","phone":"2127911817","postal_code":"10013","street_address":"1 doyers st","website":""},{"id":"4f32475e19836c91c7c7f95b","latitude":40.746206,"longitude":-74.008173,"name":"sushilicious","phone":"2123666286","postal_code":"","street_address":"60 chelsea piers","website":""},{"id":"4f32adf919836c91c7ef344a","latitude":40.761547,"longitude":-73.970623,"name":"next step china","phone":"2123073204","postal_code":"","street_address":"445 park ave","website":""},{"id":"51ccfb2a498eacb7b3e2726b","latitude":40.757141,"longitude":-73.968127,"name":"la gioconda 226 east 53","phone":"","postal_code":"","street_address":"","website":""},{"id":"4aa7b34cf964a520fe4c20e3","latitude":40.7508901358,"longitude":-73.9766013622,"name":"pret a manger","phone":"2128716274","postal_code":"10168","street_address":"380 lexington ave","website":""},{"id":"4f3260e119836c91c7d1efb7","latitude":40.805698,"longitude":-73.9384,"name":"baked in the hood","phone":"2122894558","postal_code":"","street_address":"1841 park ave","website":""},{"id":"49f15227f964a520a5691fe3","latitude":40.7841329847,"longitude":-73.9776224098,"name":"brother jimmys bbq","phone":"2125017515","postal_code":"10024","street_address":"428 amsterdam ave","website":"brotherjimmys.com"},{"id":"502ce18ce4b0d98c30088b2a","latitude":40.752635,"longitude":-73.982747,"name":"cafe grumpy","phone":"","postal_code":"10017","street_address":"5th ave","website":""},{"id":"3fd66200f964a5202ceb1ee3","latitude":40.739563,"longitude":-73.989826,"name":"eau","phone":"2123588647","postal_code":"10010","street_address":"913 broadway","website":""},{"id":"51db3743498eb768290fdb70","latitude":40.7803304734,"longitude":-73.9499110447,"name":"il salumaio","phone":"","postal_code":"10128","street_address":"1731 2nd ave","website":""},{"id":"4f2eb31c4fc63140dad78cef","latitude":40.7984200728,"longitude":-73.9386856556,"name":"el kallejon wine and tapas bar","phone":"9178539167","postal_code":"10035","street_address":"209e 117th st","website":""},{"id":"4b292040f964a520459924e3","latitude":40.7828131099,"longitude":-73.9509614859,"name":"chinatown east restaurant","phone":"2129873500","postal_code":"10128","street_address":"1650 3rd ave","website":""},{"id":"51a64245498e8781b41dcaf0","latitude":40.7194891633,"longitude":-73.9971522773,"name":"italian food center","phone":"","postal_code":"","street_address":"161 grand st","website":""},{"id":"42699000f964a52047211fe3","latitude":40.7244378829,"longitude":-74.0027417118,"name":"barolo ristorante","phone":"2122261102","postal_code":"10013","street_address":"398 w broadway","website":"nybarolo.com"},{"id":"4e6bb22d483bf2d9e6c34aed","latitude":40.787675,"longitude":-73.947556,"name":"emersons rooftop","phone":"","postal_code":"","street_address":"","website":""},{"id":"5130f64de4b0772809f9c8ac","latitude":40.8205337524,"longitude":-73.9514541626,"name":"tina","phone":"","postal_code":"10019","street_address":"23 w 56th st","website":""},{"id":"4c59c8d1f346c9286c704dca","latitude":40.722862,"longitude":-74.000208,"name":"fika espresso bar","phone":"","postal_code":"10012","street_address":"79 mercer st","website":""},{"id":"43ed614ef964a5204d2f1fe3","latitude":40.7323320495,"longitude":-73.9879417419,"name":"99 miles to philly","phone":"2122532700","postal_code":"10003","street_address":"94 3rd ave","website":"99milestophilly.com"},{"id":"4cf2aa871d18a14391725bec","latitude":40.7514812591,"longitude":-73.9937491845,"name":"subway restaurant","phone":"","postal_code":"","street_address":"330 7th ave","website":""},{"id":"4bad4d20f964a520cf433be3","latitude":40.7659438018,"longitude":-73.9908797508,"name":"city lights diner","phone":"2127575345","postal_code":"10019","street_address":"764 10th ave","website":"citylightsnyc.com"},{"id":"4b538edff964a52032a227e3","latitude":40.718994,"longitude":-73.9975869656,"name":"cannoli king","phone":"","postal_code":"","street_address":"148 mulberry st","website":""},{"id":"506e4374e4b0719dc8d08e1c","latitude":40.729706,"longitude":-74.010104,"name":"rubirosa at the westway","phone":"","postal_code":"10014","street_address":"75 ckarkson","website":""},{"id":"3fd66200f964a52057e51ee3","latitude":40.7226705551,"longitude":-73.979903,"name":"nublu","phone":"2129799965","postal_code":"10009","street_address":"62 ave c","website":""},{"id":"3fd66200f964a520bce41ee3","latitude":40.7302244592,"longitude":-73.9864549998,"name":"black hound new york","phone":"2129799505","postal_code":"10003","street_address":"170 2nd ave","website":"blackhoundny.com"},{"id":"4e5c3e5c183883e00c071181","latitude":40.804966,"longitude":-73.946828,"name":"joes house of samurai","phone":"","postal_code":"","street_address":"","website":""},{"id":"51471e5ffe704780259fb8f2","latitude":40.7203962129,"longitude":-73.9882206917,"name":"139 ludlow st","phone":"","postal_code":"","street_address":"139 ludlow st","website":""},{"id":"4c4dbc2d0d90b71382c38f78","latitude":40.7399106528,"longitude":-73.9932441673,"name":"sala19","phone":"2122292300","postal_code":"10011","street_address":"35 w 19th st","website":"salaonenine.com"},{"id":"4b849516f964a520d33c31e3","latitude":40.770987,"longitude":-73.962059,"name":"ikeno hana","phone":"2127376639","postal_code":"10021","street_address":"1016 lexington ave","website":""},{"id":"4c196bbc834e2d7f856d2a80","latitude":40.733053,"longitude":-73.997783,"name":"rabit over the moon","phone":"","postal_code":"","street_address":"47 8th st","website":""},{"id":"4b6efecbf964a5207ed52ce3","latitude":40.772894,"longitude":-73.952325,"name":"eddies market","phone":"","postal_code":"10075","street_address":"1528 1st ave","website":""},{"id":"512edd5ae4b06cb4e2e8ede9","latitude":40.7490909409,"longitude":-73.9741845345,"name":"rooftop pool palace","phone":"","postal_code":"10016","street_address":"","website":""},{"id":"504d0aeee4b0c9f21fe1797f","latitude":40.715542,"longitude":-73.996595,"name":"tony  treesys all you can eat salmon fiesta","phone":"","postal_code":"10013","street_address":"","website":""},{"id":"5134fe3a5d2462254ac005d7","latitude":40.800053,"longitude":-73.965594,"name":"dunkin donuts","phone":"","postal_code":"10025","street_address":"929 amsterdam ave","website":"dunkindonuts.com"},{"id":"4e4ce44fbd413c4cc66d010d","latitude":40.737795,"longitude":-74.000194,"name":"subway","phone":"9145134254","postal_code":"10011","street_address":"162 w 13th st","website":"subway.com"},{"id":"3fd66200f964a52073e81ee3","latitude":40.7761672,"longitude":-73.9561516,"name":"mad river bar  grille","phone":"2129881832","postal_code":"10028","street_address":"1442 3rd ave","website":"madrivergrille.com"},{"id":"4b16abe8f964a520c6bb23e3","latitude":40.7617559583,"longitude":-73.9798736572,"name":"w 53 gourmet deli","phone":"2129746075","postal_code":"10019","street_address":"1301 ave of the americas","website":""},{"id":"51bcfaf3498e8d6f7b004fd0","latitude":40.736728,"longitude":-73.993505,"name":"chickpea","phone":"","postal_code":"","street_address":"","website":""},{"id":"4af20d41f964a52080e521e3","latitude":40.7185481202,"longitude":-73.9994018435,"name":"fay da bakery","phone":"2129668934","postal_code":"10013","street_address":"191 centre st","website":"fayda.com"},{"id":"514b53aee4b00c3e98ec25e9","latitude":40.70539,"longitude":-74.004865,"name":"miami food machine","phone":"","postal_code":"","street_address":"anywhere","website":""},{"id":"4f32912719836c91c7e46106","latitude":40.755041,"longitude":-73.977646,"name":"stauback co","phone":"2127105250","postal_code":"","street_address":"366 madison ave","website":""},{"id":"4cba161bbac93704c43de97c","latitude":40.7642988614,"longitude":-73.9883373966,"name":"pure thai cookhouse","phone":"2125810999","postal_code":"10019","street_address":"766 9th ave","website":""},{"id":"4f32495519836c91c7c8bea6","latitude":40.734659,"longitude":-73.988286,"name":"consumer farmer milk co op","phone":"2124319700","postal_code":"","street_address":"101 e 15th st","website":""},{"id":"50acefd516481e9e8484e933","latitude":40.7213882373,"longitude":-73.9858818054,"name":"light up the night ivolunteer second annual gala","phone":"","postal_code":"10002","street_address":"172 norfolk st","website":""},{"id":"51ce011a498ed8dfb15381bb","latitude":40.7726492359,"longitude":-73.9761875778,"name":"spring social running club","phone":"","postal_code":"","street_address":"","website":""},{"id":"4df8bda1aeb70af3f2779159","latitude":40.766071,"longitude":-73.980985,"name":"cafe atelier","phone":"","postal_code":"","street_address":"215 w 57th st","website":""},{"id":"506755d4e4b05564fbaf3c44","latitude":40.780928,"longitude":-73.98477,"name":"the dungeon","phone":"","postal_code":"10025","street_address":"205 w 102 st","website":""},{"id":"4ba14446f964a5208da737e3","latitude":40.7413762808,"longitude":-73.99323518,"name":"the yard bar","phone":"","postal_code":"10010","street_address":"55 w 21st st","website":""},{"id":"4cb08821aef16dcbde85b154","latitude":40.7360717212,"longitude":-73.982963562,"name":"cafe 10s","phone":"","postal_code":"10003","street_address":"e 20th st  2nd ave","website":""},{"id":"4c3df8feb8b4be9aa27bcbef","latitude":40.760445,"longitude":-73.966193,"name":"fruit stand","phone":"","postal_code":"10022","street_address":"east 58th st","website":""},{"id":"4ebb43067ee5cb25a56a329d","latitude":40.7366203663,"longitude":-73.9928309704,"name":"creme de la femme","phone":"","postal_code":"10003","street_address":"union sq west","website":""},{"id":"4b848f2ef964a520ae3b31e3","latitude":40.7922176143,"longitude":-73.97342,"name":"telio restaurant","phone":"2125803700","postal_code":"10025","street_address":"2479 broadway","website":""},{"id":"4d25f59dd2668cfa6a61c3db","latitude":40.809055,"longitude":-73.948345,"name":"halal cart at w 125 st powell blvd","phone":"","postal_code":"","street_address":"sw corner w 125 st","website":""},{"id":"49ea2d8ff964a52030661fe3","latitude":40.727168,"longitude":-73.984182,"name":"crooked tree","phone":"2125333299","postal_code":"10009","street_address":"110 saint marks pl","website":""},{"id":"4f324df819836c91c7ca8db6","latitude":40.800719,"longitude":-73.9422,"name":"chardy deli grocery","phone":"2124266768","postal_code":"","street_address":"1694 park ave","website":""},{"id":"4b6483c5f964a520ddb92ae3","latitude":40.7690810357,"longitude":-73.9771259592,"name":"trump parc","phone":"","postal_code":"","street_address":"","website":""},{"id":"4e4c4df0bd413c4cc6685d62","latitude":40.7147518535,"longitude":-74.010586156,"name":"moksha","phone":"2126080707","postal_code":"10007","street_address":"18 murray st","website":""},{"id":"4dcf22a945ddbe15f89bea1c","latitude":40.73607,"longitude":-73.979595,"name":"white walls","phone":"","postal_code":"10010","street_address":"","website":""},{"id":"4f32917119836c91c7e47d34","latitude":40.707184,"longitude":-74.001923,"name":"united seafood","phone":"2125715620","postal_code":"","street_address":"111 south st","website":""},{"id":"4f32349819836c91c7c08b2e","latitude":40.730358,"longitude":-73.9832,"name":"national cafe","phone":"2124733700","postal_code":"","street_address":"210 1st ave","website":""},{"id":"4cd6032267adf04db5df3091","latitude":40.778332,"longitude":-73.983177,"name":"cafe ginger","phone":"","postal_code":"10023","street_address":"","website":""},{"id":"5071b85ae4b0ddd469e1af9c","latitude":40.7428031175,"longitude":-74.0077112361,"name":"bark high line","phone":"","postal_code":"10014","street_address":"","website":""},{"id":"4ed296320e61efa333ad8c6b","latitude":40.756786,"longitude":-73.965495,"name":"319 east 53rd st","phone":"","postal_code":"10022","street_address":"","website":""},{"id":"4bf18bb078cec9288787ba86","latitude":40.746998,"longitude":-73.9815956354,"name":"fruit cart","phone":"","postal_code":"","street_address":"34th  park","website":""},{"id":"44e9b421f964a520a5371fe3","latitude":40.7418596683,"longitude":-74.005086422,"name":"buddakan","phone":"2129896699","postal_code":"10011","street_address":"75 9th ave","website":""},{"id":"5029935fe4b0be6a06a0383e","latitude":40.7270883335,"longitude":-73.9797344631,"name":"dream baby","phone":"6468073754","postal_code":"10009","street_address":"162 ave b","website":""},{"id":"4f32822f19836c91c7deab31","latitude":40.863935,"longitude":-73.919334,"name":"new plaza grocery","phone":"2125671390","postal_code":"","street_address":"449 w 206th st","website":""},{"id":"3fd66200f964a520e5e31ee3","latitude":40.7217560963,"longitude":-73.9875339368,"name":"max fish","phone":"2125293959","postal_code":"10002","street_address":"178 ludlow st","website":"maxfish.com"},{"id":"4c7979d8a868370436c7104d","latitude":40.7246467707,"longitude":-73.9997307211,"name":"van leeuwen ice cream truck   greene","phone":"","postal_code":"10012","street_address":"113 greene st","website":""},{"id":"4b213765f964a520663824e3","latitude":40.763505,"longitude":-73.992586,"name":"punjabi tadka","phone":"2129560185","postal_code":"10036","street_address":"688 10th ave","website":""},{"id":"4b0829e6f964a5202e0523e3","latitude":40.865751,"longitude":-73.92697805,"name":"broadyke meat market  deli","phone":"2125693470","postal_code":"","street_address":"4767 broadway","website":""},{"id":"4cac8183d971b1f79b0331e1","latitude":40.792928,"longitude":-73.973423,"name":"breakfast cart at 93 and broadway","phone":"","postal_code":"","street_address":"west 93 and broadway","website":""},{"id":"4c88341f94f5a093ce2ace1e","latitude":40.7626688395,"longitude":-73.9596575421,"name":"johns pizza 64th street","phone":"","postal_code":"10021","street_address":"","website":""},{"id":"4f9dcacde4b09fef549cbb5e","latitude":40.782642558,"longitude":-73.9519487806,"name":"melrose place","phone":"","postal_code":"10021","street_address":"ues","website":""},{"id":"4bca35f40687ef3b9691dbcc","latitude":40.8619630337,"longitude":-73.9250600338,"name":"pastelitos  jugos by mi nido tavern","phone":"","postal_code":"","street_address":"nagle ave","website":""},{"id":"4f3c228ee4b0f7c8c79667be","latitude":40.7052623092,"longitude":-74.006299583,"name":"taco truck ecuadorian y mexican","phone":"","postal_code":"10005","street_address":"front st","website":""},{"id":"4bccaf8e0687ef3b50b5dfcc","latitude":40.7897371404,"longitude":-73.9673774749,"name":"bills hot dog stand","phone":"","postal_code":"10025","street_address":"1 w 93rd st","website":""},{"id":"4faf0c73e4b085f6b2df64c5","latitude":42.660869,"longitude":-73.774395,"name":"on my couch w  the itis!","phone":"","postal_code":"12203","street_address":"albany","website":""},{"id":"4b6b1845f964a52073f22be3","latitude":40.7898075571,"longitude":-73.9733236212,"name":"spice","phone":"2127245000","postal_code":"10024","street_address":"610 amsterdam ave","website":""},{"id":"4e20edcb1495f18f0349b029","latitude":40.7614730589,"longitude":-73.9786956572,"name":"havana dees cigar lounge","phone":"","postal_code":"","street_address":"","website":""},{"id":"4ec47e6fe300e6894eee53f6","latitude":40.74251,"longitude":-73.983,"name":"el barrio restaurant","phone":"","postal_code":"10029","street_address":"158 east 116th st","website":""},{"id":"4af351dcf964a5208fec21e3","latitude":40.74146,"longitude":-73.993214,"name":"the yard nyc","phone":"","postal_code":"10010","street_address":"55 w 21st st","website":""},{"id":"5039761de4b0f3363ccf3449","latitude":40.725532,"longitude":-74.002835,"name":"the paolet","phone":"","postal_code":"10012","street_address":"","website":""},{"id":"503b7c94e4b03fdd89acd9d3","latitude":40.736647,"longitude":-73.994252,"name":"32bj 4th floor lounge  kitchen","phone":"","postal_code":"10011","street_address":"","website":""},{"id":"4bda320cc79cc928c4017ee9","latitude":40.750424,"longitude":-73.974441,"name":"leonas","phone":"","postal_code":"10017","street_address":"212 east 42nd st","website":""},{"id":"50ec5416e4b087294dccff89","latitude":40.725717,"longitude":-73.996017,"name":"subways sammiches","phone":"","postal_code":"10012","street_address":"298 mulberrrry st","website":""},{"id":"50a2966fe4123a6ab3b9272d","latitude":40.7408679491,"longitude":-74.0069210529,"name":"cafe grayskull","phone":"","postal_code":"10014","street_address":"416 w 13th st","website":""},{"id":"4ce94baab5c35941b8a4698f","latitude":40.7186896893,"longitude":-74.0051805822,"name":"da mikele","phone":"2129258800","postal_code":"10013","street_address":"275 church st","website":"damikele.com"},{"id":"4cc6d9f39e0dbfb7262d729a","latitude":40.7552778,"longitude":-73.9841667,"name":"urban oyster food cart tour of midtown","phone":"3476188687","postal_code":"","street_address":"midtown manhattan","website":"urbanoyster.com"},{"id":"51f119e7498e9716f71f4413","latitude":40.756361,"longitude":-73.967311,"name":"fresh bagels","phone":"","postal_code":"","street_address":"","website":""},{"id":"3fd66200f964a52051e81ee3","latitude":40.7840318155,"longitude":-73.9777429352,"name":"mcaleers pub  restaurant","phone":"2123627867","postal_code":"10024","street_address":"425 amsterdam ave","website":""},{"id":"4e1c771652b1c2b69f352f82","latitude":40.721513,"longitude":-73.996607,"name":"the spot by heineken","phone":"","postal_code":"10012","street_address":"201 mulberry st","website":""},{"id":"4af5d67bf964a52093fd21e3","latitude":40.7188907284,"longitude":-73.9861967427,"name":"antibes bistro","phone":"2125336088","postal_code":"10002","street_address":"112 suffolk st","website":"antibesbistro.com"},{"id":"49b811a1f964a52035531fe3","latitude":40.73353,"longitude":-74.004423,"name":"bread  pastry cafe","phone":"2126209977","postal_code":"10014","street_address":"330 bleecker st","website":""},{"id":"520a0e2a11d2957a61bd111f","latitude":40.740524292,"longitude":-74.0077514648,"name":"wais and jasons coffee  breakfast cart","phone":"","postal_code":"","street_address":"","website":""},{"id":"4c3cee3f7d002d7fb321af18","latitude":40.7545629128,"longitude":-73.9951150199,"name":"bombay deli pizza  tandoori restaurant","phone":"","postal_code":"10018","street_address":"367 w 36th st","website":""},{"id":"4acfca54f964a52002d620e3","latitude":40.6460632639,"longitude":-73.775488226,"name":"brasserie la vie","phone":"","postal_code":"11422","street_address":"terminal 5","website":""},{"id":"4f32036f19833175d609b8ee","latitude":40.746619,"longitude":-73.989659,"name":"lancy ny","phone":"2122133385","postal_code":"","street_address":"51 w 29th st","website":""},{"id":"4b4b4d6af964a520ef9626e3","latitude":40.730835,"longitude":-73.990338,"name":"park avenue food court","phone":"2124757032","postal_code":"10003","street_address":"59 4th ave","website":""},{"id":"4b57b3fff964a520ce3c28e3","latitude":40.718835,"longitude":-73.999297,"name":"liang fan dian centre street","phone":"6468238061","postal_code":"10013","street_address":"199 centre st","website":""},{"id":"4aa5ae24f964a520254920e3","latitude":40.7144492849,"longitude":-73.9817087527,"name":"pizza shack","phone":"2124773367","postal_code":"10002","street_address":"525 grand st","website":"pizzashacktogo.com"},{"id":"50014f7dd63e64b62bd3dc77","latitude":40.7445908841,"longitude":-74.0028548241,"name":"posh pass nyc","phone":"9175965485","postal_code":"10011","street_address":"400 west 20th st suite 2n","website":""},{"id":"51fc4c06498ea67cd3f75a8a","latitude":40.8658821223,"longitude":-73.9278160178,"name":"majas tapas  bar","phone":"","postal_code":"10034","street_address":"229 dyckman st","website":""},{"id":"51b7c745498ecd5bb6262581","latitude":40.761543,"longitude":-73.983995,"name":"dont tell mamma bar","phone":"","postal_code":"","street_address":"","website":""},{"id":"507a3a44e4b05b62b38c450c","latitude":40.720797,"longitude":-73.988974,"name":"the line at tamany hall","phone":"","postal_code":"10002","street_address":"","website":""},{"id":"4f321aa919836c91c7b64363","latitude":40.763802,"longitude":-73.9646,"name":"rain restaurant eastside","phone":"2122233669","postal_code":"","street_address":"1059 3rd ave","website":""},{"id":"4a77196ff964a52093e31fe3","latitude":40.7692487716,"longitude":-73.9891064192,"name":"casabianca pizzeria","phone":"2123978725","postal_code":"10019","street_address":"503 w 57th st","website":""},{"id":"4af761edf964a520e90822e3","latitude":40.782373,"longitude":-73.9820975857,"name":"rs bar and grill","phone":"","postal_code":"10024","street_address":"342 west end ave","website":""},{"id":"4f32154f19836c91c7b413c8","latitude":40.761101,"longitude":-73.987503,"name":"zenith vegetarian restaurant","phone":"2122628080","postal_code":"","street_address":"311 w 48th st","website":"asahizen52.com"},{"id":"4eea329a2c5bbde2182903c0","latitude":40.7150160175,"longitude":-74.0148382038,"name":"wei west","phone":"2127861300","postal_code":"10282","street_address":"235 murray st","website":"weiwestnyc.com"},{"id":"4a0fc2fbf964a52083761fe3","latitude":40.723448,"longitude":-73.98832,"name":"pinisi bakery ii","phone":"2126733345","postal_code":"10009","street_address":"18 20 first ave","website":""},{"id":"511c5fd9e4b021215984b814","latitude":40.7646537961,"longitude":-73.9767041186,"name":"7 green  grain","phone":"2127769500","postal_code":"10022","street_address":"875 3rd ave","website":""},{"id":"4b8535caf964a520f45031e3","latitude":40.7598177947,"longitude":-73.9805147052,"name":"liberty deli","phone":"2125868060","postal_code":"10020","street_address":"30 rockefeller plz conc35","website":"libertydelimrsfieldsnyc.com"},{"id":"4d800f376bd8b60c1ba9427c","latitude":40.801332,"longitude":-73.950186,"name":"sahara delia","phone":"2128659490","postal_code":"10026","street_address":"100 malcolm x blvd","website":""},{"id":"4e4e4f66bd4101d0d7a7674b","latitude":40.7968523048,"longitude":-73.9312834217,"name":"island spice kitchen","phone":"2128315354","postal_code":"10035","street_address":"172 e 118th st","website":""},{"id":"4ee4eeeee5faffd7321bd218","latitude":40.7169862235,"longitude":-73.9992468997,"name":"long feng","phone":"","postal_code":"10013","street_address":"30 mott st","website":""},{"id":"4b2ef4dbf964a520b5e824e3","latitude":40.775329655,"longitude":-73.9834706743,"name":"old johns luncheonette","phone":"2128742700","postal_code":"10023","street_address":"148 w 67th st","website":"oldjohnsluncheonettenyc.com"},{"id":"45692b08f964a520df3d1fe3","latitude":40.7558240848,"longitude":-73.982236757,"name":"restaurant triomphe","phone":"2124534233","postal_code":"10036","street_address":"49 w 44th st","website":"triomphe-newyork.com"},{"id":"520e4e9511d23586894e2694","latitude":40.7375418498,"longitude":-73.9900533459,"name":"clarkes standard","phone":"2125299100","postal_code":"10003","street_address":"870 broadway","website":""},{"id":"4bdc4bfdfed22d7f649a57c9","latitude":40.7216841188,"longitude":-73.984721801,"name":"dunkin donuts","phone":"","postal_code":"10002","street_address":"250 e houston st","website":"dunkindonuts.com"},{"id":"3fd66200f964a520c7e71ee3","latitude":40.7643238363,"longitude":-73.981719017,"name":"ava lounge","phone":"2129567020","postal_code":"10019","street_address":"210 w 55th st","website":"avaloungenyc.com"},{"id":"4f6f85a2e4b0541c6356520a","latitude":40.7203858386,"longitude":-73.9997920716,"name":"caf\u00e9 integral","phone":"6468015747","postal_code":"10013","street_address":"135 grand st","website":"cafeintegral.com"},{"id":"4f321f2419836c91c7b820df","latitude":40.729074,"longitude":-74.001507,"name":"burger joint","phone":"2122542380","postal_code":"","street_address":"190 bleecker st","website":""},{"id":"4ada2027f964a520bd1e21e3","latitude":40.75651854,"longitude":-73.972244,"name":"the emery bar","phone":"","postal_code":"10022","street_address":"125 e 50th st","website":""},{"id":"51476ad2c84cea9d0188385b","latitude":40.7241202936,"longitude":-73.9935851097,"name":"the musket room","phone":"","postal_code":"","street_address":"265 elizabeth st","website":""},{"id":"4f32b18219836c91c7f07f51","latitude":40.77202,"longitude":-73.956015,"name":"stage deli restaurant","phone":"2124399989","postal_code":"","street_address":"1481 2nd ave","website":""},{"id":"4c26ad755c5ca59373aa46fe","latitude":40.7356425544,"longitude":-73.9741615768,"name":"majestic princess","phone":"","postal_code":"","street_address":"hudson river","website":""},{"id":"4e8263f49adf0a7b336506e6","latitude":40.7705970779,"longitude":-73.9917635409,"name":"the green door","phone":"","postal_code":"10019","street_address":"","website":""},{"id":"4de43d0345dd180ae5719eb9","latitude":40.7568614416,"longitude":-73.9960963494,"name":"el jardin","phone":"","postal_code":"","street_address":"","website":""},{"id":"49d7dbf5f964a5206c5d1fe3","latitude":40.7444889205,"longitude":-73.9809339612,"name":"brother jimmys bbq","phone":"2127797427","postal_code":"10016","street_address":"181 lexington ave","website":"brotherjimmys.com"},{"id":"4d338d86eefa8cfa565642b3","latitude":40.7641347824,"longitude":-73.9824146711,"name":"bar bella","phone":"","postal_code":"10019","street_address":"870 7th ave","website":""},{"id":"51c1f02a498efff56504e6cf","latitude":40.7836794996,"longitude":-73.9779036357,"name":"pinkberry","phone":"","postal_code":"10024","street_address":"416 amsterdam ave","website":""},{"id":"5019b64ee4b0056e4fb3ebda","latitude":40.724567,"longitude":-73.98373,"name":"ians sex mansion","phone":"","postal_code":"10009","street_address":"","website":""},{"id":"4f3257d219836c91c7ce63b3","latitude":40.745358,"longitude":-73.986948,"name":"new spirit cafe","phone":"2129297070","postal_code":"","street_address":"3 w 29th st","website":""},{"id":"4f88622de4b0ab5c86f15cb1","latitude":40.716583252,"longitude":-73.997718811,"name":"pizza alla garguilo","phone":"","postal_code":"10013","street_address":"","website":""},{"id":"5187e062498e0df553e951e5","latitude":40.751372,"longitude":-74.006979,"name":"eddies pizza truck","phone":"","postal_code":"10001","street_address":"601 west 26th st","website":""},{"id":"4b259613f964a520317424e3","latitude":40.729881,"longitude":-73.983428,"name":"best price deli  grocery","phone":"","postal_code":"10009","street_address":"196 1st ave","website":""},{"id":"4b99077bf964a520cc5c35e3","latitude":40.7609522516,"longitude":-73.9951953629,"name":"limited brands starbucks","phone":"","postal_code":"10019","street_address":"1740 broadway fl 12","website":""},{"id":"4f32583319836c91c7ce899a","latitude":40.809608,"longitude":-73.95,"name":"new image international","phone":"2126789182","postal_code":"","street_address":"243 w 125th st","website":""},{"id":"4dab01861e72c1ab9c005129","latitude":40.719227,"longitude":-73.985314,"name":"pat  peps party house","phone":"","postal_code":"10002","street_address":"158 rivington streer","website":""},{"id":"4f321e7e19836c91c7b7da27","latitude":40.84884,"longitude":-73.93409,"name":"mr pizza","phone":"2127958045","postal_code":"","street_address":"1405 saint nicholas ave","website":""},{"id":"502d3ab5e4b0a9acfdf100df","latitude":40.7531501855,"longitude":-73.988061925,"name":"the best hot  cold sandwiches","phone":"","postal_code":"10018","street_address":"150 w 38th st","website":""},{"id":"4c0536bf9a7920a1864bd279","latitude":40.767377615,"longitude":-73.9824002981,"name":"fruit cart guy","phone":"","postal_code":"10019","street_address":"58th st","website":""},{"id":"4e0e6550c65ba20da2206031","latitude":40.7154683973,"longitude":-73.9973831177,"name":"bubbly tea","phone":"2126083688","postal_code":"10013","street_address":"55b bayard st","website":""},{"id":"4ba245f2f964a520d0e837e3","latitude":40.753267,"longitude":-73.974073,"name":"js bar","phone":"2124902441","postal_code":"10017","street_address":"137 e 45th st","website":""},{"id":"4fc102bbe4b01f4bd1f02277","latitude":40.7173973411,"longitude":-73.9840216302,"name":"frank and janks bb tres","phone":"","postal_code":"10002","street_address":"","website":""},{"id":"4b857296f964a5208e5e31e3","latitude":40.79797782,"longitude":-73.9624413453,"name":"johal deli","phone":"","postal_code":"","street_address":"945 columbus","website":""},{"id":"5048e253e4b0beb13939fabf","latitude":40.7470974655,"longitude":-73.9898123104,"name":"pola nonna pizzeria","phone":"","postal_code":"10001","street_address":"835 6th ave","website":""},{"id":"4f7b3fd9e4b0d7b576d81991","latitude":40.7378921509,"longitude":-73.9809112549,"name":"rafikis","phone":"","postal_code":"10010","street_address":"e 23rd st  ny 10010","website":""},{"id":"4bf3e15598ac0f472a4b63a8","latitude":40.7402013754,"longitude":-73.9871263504,"name":"eddies coffee cart","phone":"","postal_code":"10010","street_address":"23rd st","website":""},{"id":"4f32b83b19836c91c7f3073f","latitude":40.754865,"longitude":-73.989653,"name":"new york festivals","phone":"2129898739","postal_code":"","street_address":"260 w 39th st","website":"iloveny.com\/search\/events_index.asp"},{"id":"500957fde4b00ec56e0af992","latitude":40.7588873392,"longitude":-73.9852153625,"name":"times square lays do us a flavor","phone":"","postal_code":"10036","street_address":"","website":""},{"id":"4f43c4e019834bc91f58bd94","latitude":40.75835,"longitude":-73.969698,"name":"moshes cafe","phone":"2123553656","postal_code":"","street_address":"153 e 53rd st","website":""},{"id":"50eb0e3ce4b0d6d8c387a27d","latitude":40.753399,"longitude":-73.970046,"name":"jimmys gyro","phone":"","postal_code":"10017","street_address":"","website":""},{"id":"4c2f91dd16adc92880ccbd9c","latitude":40.7495141029,"longitude":-73.99531,"name":"fresco tortilla taco","phone":"2128688868","postal_code":"10001","street_address":"397 8th ave","website":""},{"id":"4e4cd25abd413c4cc66c6efe","latitude":40.8641481826,"longitude":-73.9251522747,"name":"rancho los compadres","phone":"2125691002","postal_code":"10034","street_address":"110 sherman ave","website":""},{"id":"4b78903ef964a5200cd72ee3","latitude":40.611857463,"longitude":-73.9833903264,"name":"bay parkway cafe","phone":"7182328008","postal_code":"11204","street_address":"6812 bay pkwy","website":""},{"id":"4366b000f964a52073291fe3","latitude":40.7272440571,"longitude":-73.986333,"name":"velvet cigar lounge","phone":"2125335582","postal_code":"10003","street_address":"80 e 7th st","website":""},{"id":"50352352e4b04416d6b8e6be","latitude":40.7519042,"longitude":-73.9806108,"name":"it boys design world","phone":"","postal_code":"10017","street_address":"","website":""},{"id":"4a5f7263f964a52096bf1fe3","latitude":40.7629043436,"longitude":-73.9697938364,"name":"sherry lehmann","phone":"2128387500","postal_code":"10022","street_address":"505 park ave","website":""},{"id":"4ab254a7f964a520f16a20e3","latitude":40.7144907745,"longitude":-74.0032122727,"name":"corte cafe","phone":"","postal_code":"10007","street_address":"2 lafayette st","website":""},{"id":"52059e4711d2d1724ca2335e","latitude":40.741853,"longitude":-73.979785,"name":"graces pub ii","phone":"","postal_code":"","street_address":"","website":""},{"id":"4afdafa4f964a520d42922e3","latitude":40.7298015545,"longitude":-73.999453783,"name":"happy taco burrito","phone":"2125058899","postal_code":"10012","street_address":"235 sullivan st","website":"happytacoburritonyc.com"},{"id":"4b6e1650f964a5207ea92ce3","latitude":40.7387665935,"longitude":-73.9998024702,"name":"sence deli","phone":"2124141160","postal_code":"10011","street_address":"201 w 14th st","website":""},{"id":"4c895636944e224b43e22385","latitude":40.7427358495,"longitude":-73.9998781513,"name":"d bar","phone":"2124935171","postal_code":"10011","street_address":"263 w 19th st","website":""},{"id":"486954d9f964a520ef501fe3","latitude":40.7497556416,"longitude":-73.9770886536,"name":"red curry","phone":"2126822883","postal_code":"10016","street_address":"339 lexington ave","website":"redcurryny.com"},{"id":"4b61dfc3f964a52070282ae3","latitude":40.7745691125,"longitude":-73.9846070191,"name":"coffee cart","phone":"","postal_code":"10023","street_address":"100 amsterdam ave","website":""},{"id":"4cc4c94dbde8f04de9a1ad4b","latitude":40.761749,"longitude":-73.990489,"name":"giam headquarters","phone":"","postal_code":"10036","street_address":"401 w 47th st apt 1","website":""},{"id":"4e0691f9c65b5bf2778af01a","latitude":40.771557,"longitude":-73.955416,"name":"tina and racheys wild and crazy house party of 2","phone":"","postal_code":"","street_address":"","website":""},{"id":"3fd66200f964a5206fe91ee3","latitude":40.732381,"longitude":-73.999191,"name":"babbo","phone":"2127770303","postal_code":"10011","street_address":"110 waverly pl","website":"babbonyc.com"},{"id":"4dbbcfca4df044e524d3c9ca","latitude":40.7293462584,"longitude":-74.0036715567,"name":"new york fried chicken","phone":"","postal_code":"10014","street_address":"22 bedford st","website":""},{"id":"5117a2fae4b0f8326f68a263","latitude":40.7497278671,"longitude":-73.9783072472,"name":"audrey cafe  lounge","phone":"2126861600","postal_code":"10016","street_address":"120 east 39 st","website":"tuscany.stgilesnewyork.com"},{"id":"3fd66200f964a520d4e41ee3","latitude":40.7300554467,"longitude":-73.9993559342,"name":"shade","phone":"2129826275","postal_code":"10012","street_address":"241 sullivan st","website":""},{"id":"3fd66200f964a520c6e91ee3","latitude":40.7289125349,"longitude":-73.9881996608,"name":"khyber pass","phone":"2124730989","postal_code":"10003","street_address":"34 saint marks pl","website":"orderkhyberpass.com"},{"id":"4cd453e4b97060fcdf48f07b","latitude":40.709602,"longitude":-73.954751,"name":"zeffs pizzeria","phone":"7185990545","postal_code":"11211","street_address":"312 s 3rd st","website":""},{"id":"49edce5cf964a520f8671fe3","latitude":40.7291996351,"longitude":-74.0036082316,"name":"quinto quarto","phone":"2126759080","postal_code":"10014","street_address":"14 bedford st","website":"quintoquarto.com"},{"id":"4c2a9a4cae6820a1aba01643","latitude":40.704689,"longitude":-74.009553,"name":"the blue bar at india house","phone":"","postal_code":"10004","street_address":"1 hanover sq","website":""},{"id":"3fd66200f964a52093ea1ee3","latitude":40.7192093823,"longitude":-73.9968710797,"name":"nyonya","phone":"2123343669","postal_code":"10013","street_address":"199 grand st","website":""},{"id":"4bb4ad6f8786ef3b537f6533","latitude":40.772652,"longitude":-73.951393,"name":"gemato","phone":"","postal_code":"10075","street_address":"421 e 80th st","website":""},{"id":"3fd66200f964a520c4e61ee3","latitude":40.717464,"longitude":-73.99736,"name":"bingo seafood restaurant","phone":"2129417228","postal_code":"10013","street_address":"104 mott st","website":""},{"id":"4acccc27f964a52095c920e3","latitude":40.7413671202,"longitude":-73.9884005254,"name":"natural deli","phone":"2124750073","postal_code":"10010","street_address":"10 e 23rd st","website":""},{"id":"4fe7d070e4b047eae9e8e31c","latitude":40.745431852,"longitude":-73.9773641409,"name":"jessicas mystery cave","phone":"","postal_code":"10016","street_address":"","website":""},{"id":"4eda91ce77c8274efd5fa208","latitude":40.742603,"longitude":-74.004175,"name":"local search shop","phone":"2223334444","postal_code":"10011","street_address":"95 9th ave","website":""},{"id":"4c294e1597d00f472b4e41ea","latitude":40.8286429202,"longitude":-73.9483784235,"name":"best taste chinese restaurant","phone":"2123689955","postal_code":"10031","street_address":"3609 broadway","website":""},{"id":"4ab97430f964a520727f20e3","latitude":40.8681486629,"longitude":-73.9193941019,"name":"grandpas brick oven pizza","phone":"2123041185","postal_code":"10034","street_address":"4973 broadway","website":"grandpasbrickovenpizza.com"},{"id":"4ca67e7376d3a093f731026b","latitude":40.7572748412,"longitude":-73.9683761648,"name":"izakaya ariyoshi","phone":"","postal_code":"10022","street_address":"226 east 49th st","website":""},{"id":"4dd6be07e4cd37c8939a6ad5","latitude":40.723695,"longitude":-74.000033,"name":"buzzfeed conference room","phone":"","postal_code":"","street_address":"","website":""},{"id":"4d139ef2d1848cfa6594c571","latitude":40.7360118628,"longitude":-73.9939279,"name":"sigmunds pretzel booth","phone":"","postal_code":"10003","street_address":"union sq market","website":""},{"id":"4e4c4f83bd413c4cc6686817","latitude":40.779604,"longitude":-73.95584,"name":"b  t supreme pizza","phone":"2128282600","postal_code":"10028","street_address":"132 e 86th st","website":""},{"id":"3fd66200f964a520e5e91ee3","latitude":40.732973,"longitude":-73.993616,"name":"patsys pizzeria","phone":"2125333500","postal_code":"10003","street_address":"67 university pl","website":""},{"id":"514b8ed4e4b004a375295f97","latitude":40.7545869344,"longitude":-73.9827532815,"name":"the campbell parlour","phone":"","postal_code":"","street_address":"grand central terminal","website":""},{"id":"4b7f3514f964a520201f30e3","latitude":40.7251850277,"longitude":-73.9944780139,"name":"la rumba \"the chicken bus\"","phone":"","postal_code":"10012","street_address":"anywhere theres a rd","website":""},{"id":"4c3b5ab1d94dc9b628aeffe7","latitude":40.7612683753,"longitude":-73.964381218,"name":"street meat","phone":"","postal_code":"10022","street_address":"60th st","website":""},{"id":"512ec333e4b03eadd3ca9511","latitude":40.7287451022,"longitude":-74.0008365019,"name":"slide","phone":"2127779077","postal_code":"10012","street_address":"174 bleecker st","website":"sliderestaurant.com"},{"id":"4e1c78a06284ae9cf27b9100","latitude":40.7879892926,"longitude":-73.9766295072,"name":"mamas famous pizza  burgers","phone":"","postal_code":"10024","street_address":"2345 broadway","website":""},{"id":"4e5d5744d4c07641360c7f8b","latitude":40.7223055324,"longitude":-73.983677283,"name":"seamless foodisherenyc event","phone":"","postal_code":"","street_address":"25 ave b","website":""},{"id":"4a7b1eaaf964a52012ea1fe3","latitude":40.7498361601,"longitude":-73.9771001322,"name":"nirvana indian culinary bliss","phone":"2129830000","postal_code":"10016","street_address":"346 lexington ave","website":"nirvanany.com"},{"id":"4f32191f19836c91c7b5a2fd","latitude":40.752701,"longitude":-73.97301,"name":"hizen japanese restaurant","phone":"2125570299","postal_code":"","street_address":"203 e 45th st","website":""},{"id":"4b694c01f964a520139e2be3","latitude":40.7444658651,"longitude":-73.981180747,"name":"da giulio","phone":"2128892939","postal_code":"10016","street_address":"176 lexington ave","website":"dagiuliony.com"},{"id":"4f946d98e4b04c0c9fd3358b","latitude":40.7841795017,"longitude":-73.9772436152,"name":"luca  bosco ice cream social","phone":"","postal_code":"10024","street_address":"170 w 81st st","website":""},{"id":"4ca5226d76d3a0933964f56a","latitude":40.738392,"longitude":-74.000921,"name":"the garden","phone":"","postal_code":"10011","street_address":"213 w 13th st","website":""},{"id":"4f09fd1de4b0ca3a5ddc2393","latitude":40.771369,"longitude":-73.948796,"name":"house of the golden dong","phone":"","postal_code":"10075","street_address":"518 e 80th st","website":""},{"id":"4f9ab1dbd4f2465542bc673f","latitude":40.6402546391,"longitude":-73.7874207083,"name":"greenwich village bar","phone":"","postal_code":"11430","street_address":"jfk international airport delta terminal building 53","website":""},{"id":"50cc015fe4b0956d2ddc7539","latitude":40.815148,"longitude":-73.939791,"name":"hong kong foid","phone":"2129265689","postal_code":"10037","street_address":"527 09 lenox ave","website":""},{"id":"4c37aa4118e72d7f9cf916f5","latitude":40.734668,"longitude":-73.979484,"name":"rydis cafe","phone":"","postal_code":"10009","street_address":"","website":""},{"id":"4ee2a3a629c20563bc36999a","latitude":40.7634614735,"longitude":-73.9622796903,"name":"the tree","phone":"","postal_code":"10065","street_address":"245 e 63rd st  ny 10065","website":""},{"id":"4a983164f964a520e52a20e3","latitude":40.727134,"longitude":-74.004817,"name":"pj charlton","phone":"","postal_code":"","street_address":"charlton","website":""},{"id":"4f32a94b19836c91c7ed75de","latitude":40.762901,"longitude":-73.978302,"name":"allegria","phone":"2129567755","postal_code":"","street_address":"1350 ave of the americas","website":""},{"id":"4f329c4f19836c91c7e89543","latitude":40.828874,"longitude":-73.944953,"name":"beli restaurant","phone":"2122810007","postal_code":"","street_address":"1830 amsterdam ave","website":""},{"id":"4d0ee6eaba378cfad34e6e93","latitude":40.8208018541,"longitude":-73.943538,"name":"2657 food center inc","phone":"","postal_code":"10030","street_address":"2657 8th ave","website":""},{"id":"51f59c97498e76b17be44fa0","latitude":40.709536,"longitude":-74.010272,"name":"dunkin donuts","phone":"","postal_code":"10038","street_address":"49 nassau st","website":""},{"id":"4f3296ed19836c91c7e69242","latitude":40.76438,"longitude":-73.959636,"name":"bierman and carrington caterers","phone":"2122494594","postal_code":"","street_address":"348 e 66th st","website":""},{"id":"4f44ed6f19836ed001978621","latitude":40.757409,"longitude":-73.993364,"name":"john and tonys west pizzeria","phone":"2129676813","postal_code":"","street_address":"547 9th ave","website":""},{"id":"4b69efa9f964a52014bd2be3","latitude":40.772298,"longitude":-73.949633,"name":"starbucks","phone":"2124723581","postal_code":"10028","street_address":"1515 york ave","website":""},{"id":"5083ee68e4b0ca3a2b9dd2a6","latitude":40.7713216362,"longitude":-73.9620108629,"name":"alex cafe  deli","phone":"","postal_code":"10021","street_address":"1018 lexington ave","website":""},{"id":"4f45122d19836ed001987210","latitude":40.835755,"longitude":-73.93993,"name":"jimbos hamburger","phone":"2129237300","postal_code":"","street_address":"2048 amsterdam ave","website":""},{"id":"523749f0498e953421e750d0","latitude":40.752685,"longitude":-73.986506,"name":"mtballs nyc","phone":"","postal_code":"","street_address":"moving target!","website":""},{"id":"4bd29e83a8b3a5933c51685f","latitude":40.817593,"longitude":-73.936969,"name":"united fried chicken and pizza","phone":"","postal_code":"10037","street_address":"","website":""},{"id":"4c66edb1e1da1b8d6b749cc3","latitude":40.779893,"longitude":-73.952617,"name":"sharons new pad o matt","phone":"","postal_code":"10128","street_address":"second ave","website":""},{"id":"4da90dff6a2303012eec2c8a","latitude":40.7526586267,"longitude":-74.0006327811,"name":"absolut interiors lounge","phone":"","postal_code":"","street_address":"","website":""},{"id":"4ecc4366b8f7cc0320e7b9c1","latitude":40.7237051958,"longitude":-73.9930031359,"name":"professional dinner in our loft","phone":"","postal_code":"10003","street_address":"","website":""},{"id":"4bad33adf964a52096383be3","latitude":40.722915,"longitude":-73.998114,"name":"whiskey friday","phone":"","postal_code":"10012","street_address":"spring st  crosby st","website":""},{"id":"4bf82d4e4a67c928beef24cf","latitude":40.7760435654,"longitude":-73.9821334519,"name":"westside restaurant","phone":"2127244000","postal_code":"10023","street_address":"2020 broadway","website":""},{"id":"510b2212e4b0428ec6ffdc31","latitude":40.7729624771,"longitude":-73.9809741357,"name":"the gypsy","phone":"","postal_code":"10023","street_address":"35 w 65th st","website":""},{"id":"4edfc845a17c9ecccf057c16","latitude":40.7206320233,"longitude":-74.0020179749,"name":"founderscard signature event holiday edition","phone":"","postal_code":"10013","street_address":"15 mercer st","website":""},{"id":"4f171ef6e4b0d59e259aebe5","latitude":40.743604,"longitude":-74.003508,"name":"sandwhich place","phone":"","postal_code":"10011","street_address":"between 18th and 19th","website":""},{"id":"520961e311d2957a5d6f643c","latitude":40.721786,"longitude":-73.988543,"name":"heartbeet juicery","phone":"","postal_code":"10002","street_address":"85 stanton st","website":""},{"id":"51177ad1e4b03dc119d32722","latitude":40.778298,"longitude":-73.986876,"name":"the fortress of solitude","phone":"","postal_code":"10023","street_address":"","website":""},{"id":"5124dbd9e4b04323e5696f89","latitude":40.739261,"longitude":-73.993372,"name":"birdbad pop up breakfast","phone":"","postal_code":"10011","street_address":"","website":""},{"id":"4f77ca6ce4b0f52db976fa18","latitude":40.803932,"longitude":-73.951146,"name":"idaho joes","phone":"","postal_code":"10026","street_address":"","website":""},{"id":"51cccb22498ec9783252cb87","latitude":40.7657946332,"longitude":-73.9907956123,"name":"crisp\u00edns","phone":"2125860888","postal_code":"10019","street_address":"764 10th ave","website":"facebook.com\/CrispinsNYC"},{"id":"4e02d041ae6099b226e0ef67","latitude":40.7642676167,"longitude":-73.9553989167,"name":"disco hallal cart","phone":"","postal_code":"10065","street_address":"e 68th st","website":""},{"id":"4f5a3c1ce4b0f78045536f5f","latitude":40.7175144057,"longitude":-74.0074587461,"name":"gap inc hq cafe 13th flr","phone":"","postal_code":"10013","street_address":"55 thomas st","website":""},{"id":"4f4ad5fae4b05ebee20a21d5","latitude":40.730482,"longitude":-73.984082,"name":"le chateau","phone":"","postal_code":"10003","street_address":"","website":""},{"id":"4c4dfbbdf53d0f4757a8d8a5","latitude":40.73526573,"longitude":-73.989927,"name":"afghan halal food","phone":"","postal_code":"10003","street_address":"union sq","website":""},{"id":"4db38ff10437fa536a18a623","latitude":40.727176,"longitude":-73.992004,"name":"slayers spot","phone":"","postal_code":"10003","street_address":"2 cooper sq","website":""},{"id":"520ccd9611d26699b829f8c7","latitude":40.736605,"longitude":-73.986505,"name":"dunkin donuts","phone":"","postal_code":"10003","street_address":"110 e 14th st","website":""},{"id":"4ce46872d678a1cd6fc5a90c","latitude":40.754023,"longitude":-73.995567,"name":"hudson station bar  grill","phone":"2122444406","postal_code":"10001","street_address":"440 9th ave","website":"hudsonstation.com"},{"id":"4c3f6b713735be9a795b15a4","latitude":40.7344862402,"longitude":-73.9921136125,"name":"vapiano","phone":"2127779477","postal_code":"10003","street_address":"113 university pl","website":"vapiano.com"},{"id":"4d26669debacb1f70cf7dd4f","latitude":40.756265,"longitude":-73.994375,"name":"albert hall tavern","phone":"6464904803","postal_code":"10018","street_address":"508 9th ave","website":""},{"id":"4dc8688045dd9aa940a752ad","latitude":40.7616322928,"longitude":-73.9697536596,"name":"the galleria","phone":"","postal_code":"10022","street_address":"117 e 57th st","website":""},{"id":"4b44a1cbf964a52031f825e3","latitude":40.7613022795,"longitude":-73.9834018047,"name":"gateway newsstand paramount","phone":"","postal_code":"10019","street_address":"1633 broadway","website":""},{"id":"4f32673419836c91c7d4610c","latitude":40.732601,"longitude":-74.003601,"name":"rossano henry liqr","phone":"2129290760","postal_code":"","street_address":"98 7th ave s","website":""},{"id":"4c521b3b048b1b8d7fd10230","latitude":40.712827,"longitude":-73.994442,"name":"honto 88","phone":"","postal_code":"10002","street_address":"60 henry st","website":""},{"id":"50f5fc0de4b0698e4aedc594","latitude":40.763,"longitude":-73.986396,"name":"miras lair la la","phone":"","postal_code":"10019","street_address":"306 west 51 st","website":""},{"id":"4be2f79bd27a20a111d7905b","latitude":40.7078208167,"longitude":-74.00818,"name":"fruit smoothies  bubble tea cart","phone":"","postal_code":"","street_address":"59 william st","website":""},{"id":"4e343ba652b11c74622b6643","latitude":40.758146,"longitude":-73.975427,"name":"istana","phone":"2123036032","postal_code":"10022","street_address":"455 madison ave","website":"newyorkpalace.com\/dining\/ist"},{"id":"4db483bc0437fa536a2da1fc","latitude":40.7199282054,"longitude":-73.9878495821,"name":"hang japanese restaurant","phone":"","postal_code":"10002","street_address":"111 rivington","website":""},{"id":"4f3251b819836c91c7cc084b","latitude":40.786593,"longitude":-73.950401,"name":"acna pizza","phone":"2128760683","postal_code":"","street_address":"1505 lexington ave","website":""},{"id":"4a58d0acf964a520f6b71fe3","latitude":40.74195653,"longitude":-73.9936947851,"name":"starbucks","phone":"2126911948","postal_code":"10010","street_address":"684 ave of the americas","website":"starbucks.com"},{"id":"4e3412821838df3b5f750bdf","latitude":40.7483282,"longitude":-73.9962255,"name":"halal food street vendor","phone":"","postal_code":"10001","street_address":"","website":""},{"id":"51e25e57498e535de72f03e7","latitude":40.720068,"longitude":-73.995811,"name":"max and mikes","phone":"","postal_code":"","street_address":"","website":""},{"id":"4f43ee7419836ed001914ac6","latitude":40.767493,"longitude":-73.959318,"name":"la bellezza pizza","phone":"7182534817","postal_code":"","street_address":"1331 2nd ave","website":""},{"id":"509c2bd1498efdffc56ff479","latitude":40.725069,"longitude":-73.994346,"name":"homers crib","phone":"","postal_code":"10012","street_address":"","website":""},{"id":"4c53ae844623be9a466782f1","latitude":40.7294702456,"longitude":-73.9885854721,"name":"terrasso vignale","phone":"","postal_code":"10003","street_address":"","website":""},{"id":"4f24b50fe4b0831876ed93f0","latitude":40.7298870046,"longitude":-74.0011291709,"name":"the mercer lounge","phone":"","postal_code":"10011","street_address":"macdougal","website":""},{"id":"51c2305e498e1b49d9965d2b","latitude":40.7576861427,"longitude":-73.9864607388,"name":"ben  jerrys","phone":"","postal_code":"10036","street_address":"200 w 44th st","website":""},{"id":"4f43e7e419836ed001912cb5","latitude":40.707787,"longitude":-74.00143,"name":"dodo bird","phone":"2126087048","postal_code":"","street_address":"45 peck slip","website":""},{"id":"515f71bae4b09235877eb774","latitude":40.739076,"longitude":-73.993032,"name":"bar csa","phone":"","postal_code":"","street_address":"","website":""},{"id":"518d6a6750193a77af54a719","latitude":40.7505650277,"longitude":-73.9763224125,"name":"happy hour social event to benefit the crohns and colitis foundation of america","phone":"","postal_code":"10017","street_address":"140 east 41st st","website":""},{"id":"4e1599f88877cd57120efcdb","latitude":40.7652616368,"longitude":-73.9574247307,"name":"la quotidien","phone":"","postal_code":"10065","street_address":"68th","website":""},{"id":"51b128af498eb021ce1aa1f0","latitude":40.754632,"longitude":-73.985277,"name":"whoa old check ins!","phone":"","postal_code":"","street_address":"","website":""},{"id":"4acea30ff964a52084d120e3","latitude":40.748445,"longitude":-73.988419,"name":"martinique cafe","phone":"2122446523","postal_code":"10001","street_address":"1260 broadway","website":"martiniquecafe.com"},{"id":"51699fabe4b065db569f9f93","latitude":40.723805,"longitude":-73.991489,"name":"smorgasburg snackbar at whole foods","phone":"","postal_code":"","street_address":"","website":""},{"id":"5067ea52e4b0da4f2026f19c","latitude":40.7649324707,"longitude":-73.9875339368,"name":"99 cent pizza","phone":"","postal_code":"10019","street_address":"9th ave","website":""},{"id":"4ded440e1f6e0f9053debb17","latitude":40.7402300167,"longitude":-74.0073546333,"name":"unruly us launch party at tenjune","phone":"","postal_code":"10014","street_address":"26 little west 12th st","website":""},{"id":"4bad4975f964a5202e423be3","latitude":40.7493229504,"longitude":-73.9771259592,"name":"30 park avenue","phone":"","postal_code":"","street_address":"","website":""},{"id":"518ce4e1498e536062d3d8cc","latitude":40.761501,"longitude":-73.986691,"name":"good morning diner","phone":"","postal_code":"","street_address":"","website":""},{"id":"50f44792e4b0f797f7edef4d","latitude":40.7051988092,"longitude":-74.0077686202,"name":"smoothie cart","phone":"","postal_code":"10005","street_address":"","website":""},{"id":"4f31c7b4e4b0f5735fec7625","latitude":40.7366701841,"longitude":-73.9980819482,"name":"saras kitchen","phone":"","postal_code":"11217","street_address":"77 west 7th ave","website":""},{"id":"4f3db863e4b0e444c9114a9d","latitude":40.728836,"longitude":-73.989884,"name":"alexander hamiltons house","phone":"","postal_code":"10003","street_address":"4 saint marks pl","website":""},{"id":"4f46f43ee4b0426db937859f","latitude":40.7267074585,"longitude":-73.99168396,"name":"remember the alamo nyc","phone":"","postal_code":"10003","street_address":"","website":""},{"id":"4a5382d2f964a5205cb21fe3","latitude":40.7396973762,"longitude":-73.9852380753,"name":"chipotle mexican grill","phone":"2126736904","postal_code":"10010","street_address":"125 e 23rd st","website":"chipotle.com"},{"id":"4f32a49119836c91c7ebaf96","latitude":40.756507,"longitude":-73.967872,"name":"remedy bar and grill","phone":"2127540277","postal_code":"","street_address":"974 2nd ave","website":""},{"id":"4dc5a0e6887717c88028d7a9","latitude":40.7427172496,"longitude":-73.9889019728,"name":"asiadog","phone":"","postal_code":"10010","street_address":"mad sq eats","website":""},{"id":"3fd66200f964a52071e61ee3","latitude":40.7260745775,"longitude":-74.0093696283,"name":"ear inn","phone":"2124319750","postal_code":"10013","street_address":"326 spring st","website":"earinn.com"},{"id":"4f32670c19836c91c7d4519e","latitude":40.778595,"longitude":-73.977507,"name":"hot and tasty","phone":"2125793000","postal_code":"","street_address":"61 w 74th st","website":""},{"id":"4f5155fce4b0195da2a010ce","latitude":40.761593,"longitude":-73.992405,"name":"nyc wine ecpo","phone":"","postal_code":"10036","street_address":"","website":""},{"id":"505c97d5e4b0b4bf4491483a","latitude":40.7400016785,"longitude":-73.9760360718,"name":"tia rositas taco cart","phone":"","postal_code":"10016","street_address":"","website":""},{"id":"4eeda81f2c5bafa6194cbc6e","latitude":40.8493,"longitude":-73.934201,"name":"tacos!","phone":"","postal_code":"10033","street_address":"181st","website":""},{"id":"4c2d2315e116e21e1b1a8e60","latitude":40.7564017311,"longitude":-73.9682097168,"name":"hide chan ramen","phone":"2128131800","postal_code":"10022","street_address":"248 e 52nd st","website":"hidechanramen.com"},{"id":"4e5ad329d22dfba6f486e1ee","latitude":40.7351009081,"longitude":-74.0061446448,"name":"upright brew house","phone":"2128109944","postal_code":"10014","street_address":"547 hudson st","website":"uprightnyc.com"},{"id":"4b9886b7f964a520d54535e3","latitude":40.7885837305,"longitude":-73.9440617623,"name":"halal jfk fried chicken","phone":"2123692514","postal_code":"10029","street_address":"1998 2nd ave","website":""},{"id":"4b59f58df964a520d5a328e3","latitude":40.7541912464,"longitude":-73.9769968244,"name":"beer bar at cafe centro","phone":"2128181222","postal_code":"10166","street_address":"200 park ave","website":"patinagroup.com"},{"id":"4ec59d3e0e6158bafc5f9734","latitude":40.7498239342,"longitude":-73.977059957,"name":"bagel express on lexington","phone":"","postal_code":"10016","street_address":"347 lexington ave manhattan ny 10016","website":""},{"id":"4c17baa5d4d9c928315fee29","latitude":40.743478,"longitude":-73.9925658703,"name":"falafel  dosa cart","phone":"","postal_code":"","street_address":"39th st  6th ave","website":""},{"id":"4d8263a73e916dcb8edd80d2","latitude":40.74348254,"longitude":-73.994009,"name":"the guilty goose","phone":"2122553727","postal_code":"10011","street_address":"131 w 23rd st","website":""},{"id":"4d3b411f34ee37044203819b","latitude":40.777092,"longitude":-73.957607,"name":"dulce vida cafe","phone":"","postal_code":"10028","street_address":"1219 lexington ave","website":""},{"id":"51f04827498ec75437f0ba13","latitude":40.7213391826,"longitude":-73.9944952303,"name":"street fight drinks night","phone":"","postal_code":"","street_address":"","website":""},{"id":"51abad92e4b0f65d68fc311d","latitude":40.7222892938,"longitude":-73.9882283558,"name":"karaoke night","phone":"","postal_code":"","street_address":"","website":""},{"id":"4e4e4bb7bd4101d0d7a7148e","latitude":40.774715,"longitude":-73.950952,"name":"caffe centino ristorante italiano","phone":"2127171325","postal_code":"10028","street_address":"1590 1st ave","website":""},{"id":"4c6c8b83e6b7b1f74d82a78e","latitude":40.7784029667,"longitude":-73.952015,"name":"tequilla jacks","phone":"","postal_code":"10028","street_address":"","website":""},{"id":"511aa86de4b028482cafe0bf","latitude":40.7223881019,"longitude":-74.0055707986,"name":"daily style sessions  stonerose ny","phone":"","postal_code":"10021","street_address":"","website":""},{"id":"433b2e80f964a52038281fe3","latitude":40.751308,"longitude":-73.983529,"name":"obw bar  grill","phone":"","postal_code":"10018","street_address":"20 w 38th st","website":""},{"id":"4fac6b72e4b0d0b656163f51","latitude":40.7348700533,"longitude":-74.0063684443,"name":"by invite only","phone":"","postal_code":"10014","street_address":"545 hudson st","website":""},{"id":"4f7b7d10e4b043bd2aba7bd1","latitude":40.7180087055,"longitude":-73.995269967,"name":"leroys lair electric boogarloo room","phone":"","postal_code":"10013","street_address":"108 bowery","website":""},{"id":"4e4e4a59bd4101d0d7a6f4ba","latitude":40.7468512098,"longitude":-73.9847447574,"name":"chop stick house","phone":"2128688090","postal_code":"10018","street_address":"128 w 36th st","website":""},{"id":"4afb634af964a520951d22e3","latitude":40.755404,"longitude":-73.979639,"name":"starbucks","phone":"2126871026","postal_code":"10036","street_address":"545 5th ave","website":"starbucks.com\/store\/8973\/"},{"id":"4b040041f964a520d45022e3","latitude":40.8000508641,"longitude":-73.9680604875,"name":"mcdonalds","phone":"2122228714","postal_code":"10025","street_address":"2726 broadway","website":"mcdonaldsnytristate.com"},{"id":"4f123ae0e4b0865b087c6b79","latitude":40.7633426351,"longitude":-73.9943804542,"name":"mike  tims jannual","phone":"","postal_code":"10036","street_address":"521 w 47th st","website":""},{"id":"502dded6e4b06a779d5bdb82","latitude":40.8094800003,"longitude":-73.9534928536,"name":"uptown perks","phone":"","postal_code":"10027","street_address":"123rd st","website":""},{"id":"4c7908033badb1f7928d4d54","latitude":40.75289,"longitude":-73.970909,"name":"burthe house 20","phone":"","postal_code":"10017","street_address":"235 e 46th st","website":""},{"id":"4a4e8b79f964a520a7ae1fe3","latitude":40.7487085819,"longitude":-73.9757743442,"name":"margarita murphys","phone":"2126844421","postal_code":"10016","street_address":"591 3rd ave","website":""},{"id":"4f43516b19834bc91f55edd7","latitude":40.75698,"longitude":-73.97624,"name":"au croissant and gourmet","phone":"2127506970","postal_code":"","street_address":"425 madison ave","website":""},{"id":"4c898161557776b07f383591","latitude":40.75885727,"longitude":-73.97808562,"name":"volkswagen style express","phone":"","postal_code":"10009","street_address":"5 ave a","website":""},{"id":"4a82e62cf964a52081f91fe3","latitude":40.7700517068,"longitude":-73.98421676,"name":"alans marketplace","phone":"2122655886","postal_code":"10023","street_address":"27 columbus ave","website":""},{"id":"4b120132f964a520198823e3","latitude":40.7938571525,"longitude":-73.9724914013,"name":"long grain thai  japanese","phone":"2126660888","postal_code":"10025","street_address":"2534 broadway","website":""},{"id":"43601880f964a52025291fe3","latitude":40.7220709199,"longitude":-73.9882513117,"name":"zucco le french diner","phone":"2126775200","postal_code":"10002","street_address":"188 orchard st","website":""},{"id":"4f4342b519834bc91f559655","latitude":40.731289,"longitude":-73.99039,"name":"andys deli","phone":"2124757032","postal_code":"","street_address":"59 4th ave","website":""},{"id":"4c35fb667cc0c9b6bfcbf59a","latitude":40.750364,"longitude":-73.9717572927,"name":"xpl halal food cart","phone":"","postal_code":"10017","street_address":"800 2nd ave","website":""},{"id":"4ad103f8f964a520f4db20e3","latitude":40.7563029515,"longitude":-73.9851737022,"name":"heartland brewery","phone":"6463660235","postal_code":"10036","street_address":"127 w 43rd st","website":""},{"id":"4fcb5d2ee4b0928dc1d32f10","latitude":40.761344,"longitude":-73.989942,"name":"saigon 9 west cafe","phone":"2127579813","postal_code":"10036","street_address":"358 w 47th st","website":""},{"id":"4fd3fd8be4b070e01e600666","latitude":40.7318482759,"longitude":-74.0006471276,"name":"im phil 2","phone":"","postal_code":"10014","street_address":"","website":""},{"id":"4dceb56ab0fb25f6e34a8652","latitude":40.7624777188,"longitude":-73.9685196543,"name":"vegan picnic","phone":"","postal_code":"","street_address":"","website":""},{"id":"4f32b24219836c91c7f0c52a","latitude":40.736197,"longitude":-73.989301,"name":"california lovers","phone":"2125331665","postal_code":"","street_address":"38 union sq e","website":""},{"id":"4f32727719836c91c7d8b431","latitude":40.743946,"longitude":-73.985596,"name":"smk wines and liquors","phone":"2126857651","postal_code":"","street_address":"23 e 28th st","website":""},{"id":"51e869ac498e7e485cabcdeb","latitude":40.744498,"longitude":-73.990373,"name":"home plate flatiron school","phone":"","postal_code":"","street_address":"","website":""},{"id":"4acf77adf964a520e1d320e3","latitude":40.762513,"longitude":-73.96887,"name":"food exchange 59th","phone":"2127590656","postal_code":"10022","street_address":"120 e 59th st","website":""},{"id":"4b70ae7ef964a5206d292de3","latitude":40.770932,"longitude":-73.953756,"name":"a matter of health","phone":"2122888280","postal_code":"10075","street_address":"1478 1st ave","website":""},{"id":"51083660e4b095c58704b3bf","latitude":40.7644537931,"longitude":-73.9746207291,"name":"tartinery","phone":"","postal_code":"10019","street_address":"1 west 59th st","website":""},{"id":"51e5ede80b6bdecf7a5c27b5","latitude":40.776252,"longitude":-73.98145,"name":"gastroarte restaurante  fka graffit","phone":"","postal_code":"10023","street_address":"141 west 69th st","website":"andanada141.com"},{"id":"51608baee4b0339636dc197c","latitude":40.741798,"longitude":-74.00443,"name":"chocolate tour","phone":"","postal_code":"","street_address":"75 ninth ave","website":""},{"id":"501714ffe4b0d51a4d830c67","latitude":40.730507,"longitude":-74.002648,"name":"bisous ciao macarons","phone":"","postal_code":"10014","street_address":"235 bleecker st","website":""},{"id":"4d8279629130b60c838f0eb4","latitude":40.7736445139,"longitude":-73.964209183,"name":"untitled","phone":"2125703670","postal_code":"10021","street_address":"945 madison ave","website":"untitledatthewhitney.com"},{"id":"4cc32fe042d1b60c1ea51513","latitude":40.739794,"longitude":-73.979801,"name":"deli superette","phone":"","postal_code":"","street_address":"","website":""},{"id":"4f44995e19836ed001952cfd","latitude":40.72372,"longitude":-73.988142,"name":"wallys","phone":"2126738908","postal_code":"","street_address":"24 1st ave","website":""},{"id":"51e9aeae498eb74ca88c5133","latitude":40.723327,"longitude":-73.989657,"name":"fools gold nyc","phone":"","postal_code":"10002","street_address":"145 e houston st","website":""},{"id":"4bf94131b182c9b61399785a","latitude":40.796173,"longitude":-73.935448,"name":"dunkin donuts","phone":"","postal_code":"10035","street_address":"2258 1st ave aka 401 403 east 116th st","website":"dunkindonuts.com"},{"id":"4e2e07e01838f1c552b6b752","latitude":40.7647110822,"longitude":-73.9834247613,"name":"54 gourmet","phone":"","postal_code":"","street_address":"250 west 54th st","website":""},{"id":"5234d0987e4872a9d59a3f67","latitude":40.7504756227,"longitude":-73.9852809906,"name":"sankeys nyc","phone":"6465293191","postal_code":"10018","street_address":"29 w 36th st","website":"facebook.com\/sankeysnyc"},{"id":"4653fbb3f964a520f3461fe3","latitude":40.754395,"longitude":-73.973196,"name":"vince bar","phone":"","postal_code":"10017","street_address":"vanderbilt ave","website":""},{"id":"4b54fcddf964a520bfd627e3","latitude":40.7116144896,"longitude":-73.993794322,"name":"food king chinese restaurant","phone":"2122332433","postal_code":"10002","street_address":"56 market st","website":""},{"id":"4c0cf412b4c6d13ae4850c30","latitude":40.7570948393,"longitude":-73.981834,"name":"the eddies pizza truck","phone":"9174397522","postal_code":"10007","street_address":"moving target!","website":""},{"id":"4f32bd1719836c91c7f52113","latitude":40.75146,"longitude":-73.978158,"name":"global technology business publishing","phone":"2122109244","postal_code":"","street_address":"100 park ave","website":""},{"id":"44acde31f964a52013351fe3","latitude":40.724941,"longitude":-74.00258,"name":"bens pizza","phone":"2129664494","postal_code":"10012","street_address":"177 spring st","website":""},{"id":"4b4cb1c8f964a5209bba26e3","latitude":40.7302670102,"longitude":-73.9997327328,"name":"j  b express","phone":"2124754859","postal_code":"10012","street_address":"123 w 3rd st","website":""},{"id":"4a5a7c30f964a5206aba1fe3","latitude":40.747972234,"longitude":-74.0040779114,"name":"don giovanni ristorante","phone":"2122429054","postal_code":"10011","street_address":"214 10th ave","website":"dongiovanni-ny.com"},{"id":"4be08704854f9521f6992ba5","latitude":40.728229,"longitude":-73.981989,"name":"diablo royale este","phone":"2123889673","postal_code":"10009","street_address":"167 ave a","website":""},{"id":"4d0c1650f393224b2b5d14ee","latitude":40.7151919084,"longitude":-74.0092277527,"name":"smyth lobby bar","phone":"2125877000","postal_code":"10007","street_address":"85 w broadway","website":"thompsonhotels.com\/hotels\/nyc\/smyth-tribeca\/drink\/smyth-lobby-bar"},{"id":"4df47058b61cbd3ec01eec2a","latitude":40.7560048765,"longitude":-73.9873029383,"name":"street corner vendor","phone":"","postal_code":"10019","street_address":"","website":""},{"id":"4d6b8ebe56cc6a3175a95eac","latitude":40.7515819181,"longitude":-73.9924120337,"name":"7 eleven","phone":"","postal_code":"10001","street_address":"243 w 34th st","website":"7-eleven.com"},{"id":"4a685ee2f964a52061ca1fe3","latitude":40.7568906559,"longitude":-73.9833329351,"name":"dunhill cafe restaurant","phone":"2129448484","postal_code":"10036","street_address":"109 w 45th st","website":"dunhillcafenyc.com"},{"id":"51c3973f498eb28659aa5e86","latitude":40.727555,"longitude":-73.994646,"name":"freshmade nyc","phone":"","postal_code":"","street_address":"636 broadway","website":""},{"id":"4f324acd19836c91c7c952a9","latitude":40.811434,"longitude":-73.938593,"name":"atan deli express","phone":"2129268069","postal_code":"","street_address":"2176 5th ave","website":""},{"id":"50e98e4be4b0a6e2890fc928","latitude":40.7919410836,"longitude":-73.9382582269,"name":"the real clubhouse   harlem","phone":"","postal_code":"10029","street_address":"2133 first ave","website":""},{"id":"4cae04db8b57a1cd32f89c75","latitude":40.7590579542,"longitude":-73.978972435,"name":"nbc local media 6th floor cafe","phone":"","postal_code":"10112","street_address":"30 rockefeller plz","website":""},{"id":"4cb78b84dd41a35d0106d4a0","latitude":40.75652776,"longitude":-73.9757800388,"name":"bennys burritos","phone":"","postal_code":"10016","street_address":"499 3rd ave","website":""},{"id":"4c22389c13c00f473e1d87de","latitude":40.8030574981,"longitude":-73.9563131332,"name":"cafe 2115","phone":"2122800552","postal_code":"","street_address":"2115 frederick douglass blvd","website":"mycafe2115.com\/harlem\/home.aspx"},{"id":"4fd3d92ee4b02bec72d5f140","latitude":40.758129,"longitude":-73.977586,"name":"afredo ristorante","phone":"","postal_code":"10020","street_address":"","website":""},{"id":"3fd66200f964a52036e61ee3","latitude":40.728301398,"longitude":-73.9993903661,"name":"terra blues","phone":"2127777776","postal_code":"10012","street_address":"149 bleecker st","website":"terrablues.com"},{"id":"5193c646498e4046fdd4bb17","latitude":40.763069,"longitude":-73.968702,"name":"the bar room","phone":"","postal_code":"","street_address":"119 e 60 st","website":""},{"id":"515619d9e4b02bc2101aa2c6","latitude":40.7191926083,"longitude":-73.9966185754,"name":"red mango","phone":"","postal_code":"","street_address":"203 grand st","website":""},{"id":"42dc4280f964a5203c261fe3","latitude":40.7162775353,"longitude":-73.998122119,"name":"house of vegetarian","phone":"2122266572","postal_code":"10013","street_address":"68 mott st","website":"vegetariandshouse.com"},{"id":"4b63389ef964a520986b2ae3","latitude":40.7615390517,"longitude":-73.9851464935,"name":"serafina at time hotel","phone":"2122471000","postal_code":"10019","street_address":"224 w 49th st","website":""},{"id":"4e6bec791850d2c68ce190ce","latitude":40.7239251504,"longitude":-73.9969110489,"name":"juice generation","phone":"2123341088","postal_code":"10012","street_address":"69 prince st","website":"juicegeneration.com"},{"id":"4e17394f813097715779a777","latitude":40.7305109158,"longitude":-73.9898836613,"name":"sushi by simon","phone":"","postal_code":"10003","street_address":"109 e 9 st","website":""},{"id":"4f32954119836c91c7e5f522","latitude":40.825572,"longitude":-73.943885,"name":"cafe bon jour","phone":"2126908080","postal_code":"","street_address":"741 saint nicholas ave","website":""},{"id":"4e4cb690bd413c4cc66b8e8a","latitude":40.77402,"longitude":-73.954556,"name":"willys bar  grille","phone":"2127341978","postal_code":"10028","street_address":"1538 2nd ave","website":""},{"id":"4ad3f445f964a5200ee720e3","latitude":40.7286610808,"longitude":-74.0002224694,"name":"falucka lounge","phone":"2127775454","postal_code":"10012","street_address":"162 bleecker st","website":""},{"id":"4905cb1af964a5205e521fe3","latitude":40.720184,"longitude":-73.984548,"name":"donnybrook","phone":"2122287733","postal_code":"10002","street_address":"35 clinton st","website":"donnybrooknyc.com"},{"id":"3fd66200f964a5206fe41ee3","latitude":40.7299114983,"longitude":-73.9887219083,"name":"hasaki","phone":"2124733327","postal_code":"10003","street_address":"210 e 9th st","website":""},{"id":"4cf472df1d18a143632e66ec","latitude":40.750787,"longitude":-73.993453,"name":"gyro kart","phone":"","postal_code":"10121","street_address":"420 8th ave","website":""},{"id":"4bf9a45b4a67c928ec3927cf","latitude":40.7145660273,"longitude":-73.9902082971,"name":"1 essex st","phone":"","postal_code":"10002","street_address":"1 essex st","website":""},{"id":"4f445b7719836ed00193a67e","latitude":40.759044,"longitude":-73.968268,"name":"highlander cafe","phone":"2123199103","postal_code":"","street_address":"918 3rd ave","website":""},{"id":"4f3f398be4b0ac9415ea6821","latitude":40.7182070413,"longitude":-74.0041706067,"name":"45 franklin st","phone":"","postal_code":"11222","street_address":"45 franklin st","website":""},{"id":"4b93503af964a520a43f34e3","latitude":40.8051146858,"longitude":-73.9660803182,"name":"vareli","phone":"2126788585","postal_code":"10025","street_address":"2869 broadway","website":"varelinyc.com"},{"id":"4aa94375f964a520be5220e3","latitude":40.8082245282,"longitude":-73.9600248916,"name":"haakons hall","phone":"2123004166","postal_code":"10027","street_address":"1187 amsterdam ave","website":"haakonshallny.com"},{"id":"4ac23730f964a5203a9820e3","latitude":40.740993947,"longitude":-73.9906024933,"name":"sagaponack","phone":"2122292226","postal_code":"10010","street_address":"4 w 22nd st","website":"sagaponacknyc.com"},{"id":"43ed7e9ef964a5204e2f1fe3","latitude":40.7380837403,"longitude":-73.9906400442,"name":"rosa mexicano","phone":"2125333350","postal_code":"10003","street_address":"9 e 18th st","website":"rosamexicano.com\/locations\/newyorknyunionsquare\/tabid\/97\/default.aspx"},{"id":"4cbd00e8bac93704f4c9fb7c","latitude":40.747477,"longitude":-73.886074,"name":"true colors bar","phone":"7186727505","postal_code":"11372","street_address":"7915 roosevelt ave","website":""},{"id":"4b4247f6f964a520a5d025e3","latitude":40.7467107245,"longitude":-73.9917004132,"name":"blu nyc","phone":"6464844330","postal_code":"10001","street_address":"127 w 28th st","website":"indigochelsea.com"},{"id":"423e0e80f964a52044201fe3","latitude":40.7517257802,"longitude":-74.0042681614,"name":"the eagle","phone":"6464731866","postal_code":"10001","street_address":"554 w 28th st","website":"eaglenyc.com"},{"id":"4e28aec862e17c3301a0d415","latitude":40.7290176249,"longitude":-73.9781963396,"name":"subway","phone":"2122600245","postal_code":"10009","street_address":"400 e 14th st","website":""},{"id":"4e66911a8877dfcf2fcfbbbf","latitude":40.787229,"longitude":-73.969791,"name":"juliens place","phone":"","postal_code":"","street_address":"","website":""},{"id":"4f32383d19836c91c7c1eef0","latitude":40.764455,"longitude":-73.988095,"name":"pluck u","phone":"2125822468","postal_code":"","street_address":"768 9th ave","website":""},{"id":"50ad2932e4b0c7ff4f442639","latitude":40.7591692171,"longitude":-73.9830287606,"name":"godiva","phone":"","postal_code":"10022","street_address":"","website":""},{"id":"4cbca9edbac93704608df97c","latitude":40.8094910205,"longitude":-73.9629407037,"name":"lizs place at barnard college","phone":"","postal_code":"10027","street_address":"1st floor diana center 3009 broadway","website":""},{"id":"4bb3e8d249bdc9b607480c10","latitude":40.8228380405,"longitude":-73.9453268051,"name":"crown fried chicken","phone":"2129390011","postal_code":"10031","street_address":"701 st nicholas ave","website":""},{"id":"4d9e413e601d721e0ef2d3cc","latitude":40.731226498,"longitude":-73.98887973,"name":"the birds nest","phone":"","postal_code":"","street_address":"","website":""},{"id":"4f34ae96e4b0aee3b34480a3","latitude":40.7609195786,"longitude":-73.9833903264,"name":"mr ramen japanese noodle food","phone":"","postal_code":"10036","street_address":"theater district   times sq  ny","website":""},{"id":"4f322a3c19836c91c7bc90fe","latitude":40.745758,"longitude":-73.996226,"name":"california pizza kitchen","phone":"2128692988","postal_code":"","street_address":"262 w 25th st","website":"cpk.com"},{"id":"4e7d451b722ed66f07b4850d","latitude":40.74572,"longitude":-73.999125,"name":"patsys pizzeria","phone":"6464867400","postal_code":"10011","street_address":"318 w 23rd st","website":""},{"id":"515f6a68e4b0ade7bb36e93b","latitude":40.7468760593,"longitude":-73.9928424481,"name":"indigo rooftop lounge","phone":"7185300676","postal_code":"10001","street_address":"127 w 28th st","website":""},{"id":"4f322d5119836c91c7bdbd14","latitude":40.756601,"longitude":-73.966859,"name":"regent restaurant","phone":"2125933091","postal_code":"","street_address":"317 e 53rd st","website":""},{"id":"4d56fb0da747b60c62a62f2b","latitude":40.740860161,"longitude":-73.978609568,"name":"joey pepperonis pizza","phone":"2122135558","postal_code":"10016","street_address":"493 2nd ave","website":""},{"id":"4f322df319836c91c7bdf96d","latitude":40.777606,"longitude":-73.945895,"name":"india garden restaurant","phone":"8002966022","postal_code":"","street_address":"1690 york ave","website":""},{"id":"4d012039f16054818feaa1ea","latitude":40.74884,"longitude":-73.9735,"name":"food network truck","phone":"","postal_code":"10016","street_address":"","website":""},{"id":"4e4cb697bd413c4cc66b8ec0","latitude":40.7758197084,"longitude":-73.947264826,"name":"ottomanelli cafe","phone":"2127720080","postal_code":"10028","street_address":"1626 york ave","website":"nycotto.com\/new_york_grill.php"},{"id":"4a6f8d47f964a5207ed61fe3","latitude":40.7753425929,"longitude":-73.9564489439,"name":"eat = authentic thai kitchen","phone":"2127721494","postal_code":"10028","street_address":"1429 3rd ave","website":"eatthainyc.com\/eat"},{"id":"4b3ceccaf964a520b08925e3","latitude":40.783318,"longitude":-73.94799,"name":"famous original rays pizza","phone":"2123483955","postal_code":"10128","street_address":"1827 2nd ave","website":"rayspizzany.com"},{"id":"4ab7fa70f964a520b17b20e3","latitude":40.7638256343,"longitude":-73.9924579447,"name":"foo king chinese","phone":"2123076701","postal_code":"10019","street_address":"694 10th ave","website":""},{"id":"51a11cbc498e4083823909f1","latitude":40.7182998657,"longitude":-74.0085754395,"name":"new york da d","phone":"","postal_code":"","street_address":"","website":""},{"id":"51b76bd8498eb126f934d8fc","latitude":40.7070048181,"longitude":-74.0032352269,"name":"asiadog","phone":"","postal_code":"","street_address":"smorgasburg at fulton market","website":""},{"id":"4dc597c57d8b14fb462ed076","latitude":40.7567824439,"longitude":-73.9820623398,"name":"red hook lobster pound truck","phone":"7188587650","postal_code":"10036","street_address":"moving target!","website":"redhooklobsterpound.com"},{"id":"4c08facaffb8c9b6c70a6961","latitude":40.7091308667,"longitude":-74.0109446333,"name":"rafi place","phone":"","postal_code":"10038","street_address":"cedar","website":""},{"id":"4d8254a57989530c3e0f9df8","latitude":40.733997,"longitude":-74.008531,"name":"colettes cakes","phone":"2123666530","postal_code":"10014","street_address":"681 washington st","website":"colettescakes.com"},{"id":"512016d0e4b0e474c77c147c","latitude":40.712471496,"longitude":-74.0062479369,"name":"subway","phone":"","postal_code":"10007","street_address":"250 broadway","website":""},{"id":"4ad914d4f964a520ec1721e3","latitude":40.7805090868,"longitude":-73.9758087804,"name":"scaletta ristorante","phone":"2127699191","postal_code":"10024","street_address":"50 w 77th st","website":"scalettaristorante.com"},{"id":"511fcda5e4b0c67439e6db01","latitude":40.747704,"longitude":-73.99431,"name":"fc barcelona penya  smithfield","phone":"","postal_code":"10001","street_address":"215 w 28th st","website":""},{"id":"521bad3911d20bf2f22b29d8","latitude":40.709453,"longitude":-74.008364,"name":"vivi bubble tea","phone":"","postal_code":"","street_address":"","website":""},{"id":"4a85ffcdf964a520060020e3","latitude":40.7229209289,"longitude":-73.9882570507,"name":"cafe himalaya","phone":"2123580160","postal_code":"10009","street_address":"78 e 1st st","website":""},{"id":"4f322fef19836c91c7beb890","latitude":40.739908,"longitude":-73.982435,"name":"big city kitchen","phone":"2125327997","postal_code":"","street_address":"333 3rd ave","website":""},{"id":"4e4e2b88bd4101d0d7a3d658","latitude":40.7623426838,"longitude":-73.983459196,"name":"ben  jerrys","phone":"","postal_code":"10036","street_address":"680 8th ave","website":""},{"id":"4b4626c7f964a520431826e3","latitude":40.7561461667,"longitude":-73.969269,"name":"wild ginger","phone":"2128298000","postal_code":"10022","street_address":"226 e 51st st","website":"wildginger51stnyc.com"},{"id":"50bebc5ce4b0730abe6b83b8","latitude":40.7712712516,"longitude":-73.9524481662,"name":"the penthouse","phone":"","postal_code":"10075","street_address":"east 78th st","website":""},{"id":"3fd66200f964a52042e31ee3","latitude":40.7508659965,"longitude":-73.9866439845,"name":"keens steakhouse","phone":"2129473636","postal_code":"10018","street_address":"72 w 36th st","website":"keens.com"},{"id":"51d5b80d498eda53b7210894","latitude":40.7063088016,"longitude":-74.0034418142,"name":"black diamond cold brew","phone":"","postal_code":"10038","street_address":"11 fulton st","website":""},{"id":"4dd658e1ae60680f14eaa466","latitude":40.791513,"longitude":-73.953032,"name":"102nd street coffee cart","phone":"","postal_code":"10029","street_address":"102nd st","website":""},{"id":"50892fb4e4b01b583fcf1035","latitude":40.7988799483,"longitude":-73.9297047273,"name":"the spot mary gives head","phone":"","postal_code":"10035","street_address":"","website":""},{"id":"4c901f02fbe58cfaaa951fb9","latitude":40.7535084667,"longitude":-73.9989229333,"name":"mike fleischmans house","phone":"","postal_code":"","street_address":"","website":""},{"id":"4f551edbe4b07c31b65f42bd","latitude":40.768839,"longitude":-73.963372,"name":"956 lexington ave","phone":"","postal_code":"10021","street_address":"956 lexington ave","website":""},{"id":"4a53cdc5f964a520bfb21fe3","latitude":40.7519650922,"longitude":-73.9911494794,"name":"fuji bakery","phone":"2126297588","postal_code":"10001","street_address":"224 w 35th st","website":""},{"id":"4b79a468f964a520c5072fe3","latitude":40.71811,"longitude":-73.997585,"name":"rudys pizza  restaurant","phone":"2129411025","postal_code":"10013","street_address":"174 hester st","website":""},{"id":"4fe2a076e4b082099518bee2","latitude":40.725453,"longitude":-73.98421,"name":"bro castle","phone":"","postal_code":"10009","street_address":"","website":""},{"id":"4eb6ac4acc2143e8287fa93f","latitude":40.7679558429,"longitude":-73.9576793571,"name":"kos non spicy bloody mary haven","phone":"","postal_code":"10021","street_address":"e 71st st  ny","website":""},{"id":"50eede4ae4b04e0d0fd9dd44","latitude":40.779555,"longitude":-73.975153,"name":"the potato place","phone":"","postal_code":"10023","street_address":"","website":""},{"id":"49df75e4f964a520c8601fe3","latitude":40.732677,"longitude":-73.991519,"name":"le pain quotidien","phone":"2126775277","postal_code":"10003","street_address":"801 broadway","website":"lepainquotidien.com"},{"id":"52287da211d2164a0cad79c0","latitude":40.7937889099,"longitude":-73.9669799805,"name":"coffee cart","phone":"","postal_code":"","street_address":"","website":""},{"id":"4a4c0f4ef964a52004ad1fe3","latitude":40.752528,"longitude":-73.970307,"name":"ali baba terrace","phone":"2128888623","postal_code":"10017","street_address":"862 2nd ave","website":"orderalibabasterrace.com"},{"id":"4e4c36afbd41b9fca4317a0d","latitude":40.7824089655,"longitude":-73.8027130043,"name":"dunkin donuts","phone":"7187467915","postal_code":"11357","street_address":"1755 francis lewis blvd","website":"dunkindonuts.com"},{"id":"4cc18ce167a3b1f7831fc90e","latitude":40.764421,"longitude":-73.973007,"name":"coffee cart","phone":"","postal_code":"","street_address":"","website":""},{"id":"4beefb66b659a593c8fa36c3","latitude":40.761747,"longitude":-73.976955,"name":"sabrett hot dog stand","phone":"","postal_code":"10019","street_address":"17 25 w 54th st","website":""},{"id":"50351e3be4b082303e2db860","latitude":40.745614,"longitude":-73.994588,"name":"crumbs bake shop","phone":"","postal_code":"10001","street_address":"275 7th ave","website":""},{"id":"4f32b30019836c91c7f10d43","latitude":40.706501,"longitude":-74.0099,"name":"mangia caterers and restaurants","phone":"2124254040","postal_code":"","street_address":"40 wall st","website":""},{"id":"4b998a8ff964a520098235e3","latitude":40.7377979869,"longitude":-73.9896917926,"name":"abc kitchen","phone":"2124755829","postal_code":"10003","street_address":"35 e 18th st","website":"abckitchennyc.com"},{"id":"4ee6366b77c8e89319c7e4b8","latitude":40.7744588552,"longitude":-73.9805379555,"name":"joanne restaurant","phone":"","postal_code":"10023","street_address":"70 w 68th st","website":""},{"id":"3fd66200f964a52045ea1ee3","latitude":40.746273465,"longitude":-73.9776568457,"name":"jackson hole","phone":"2126793264","postal_code":"10016","street_address":"521 3rd ave","website":"jacksonhole3rdavenyc.com"},{"id":"4a3d4791f964a5200ea21fe3","latitude":40.7735757216,"longitude":-73.9517076975,"name":"gracie mews diner","phone":"2128612290","postal_code":"10028","street_address":"1550 1st ave","website":""},{"id":"515f140de4b0a6b1ae5648af","latitude":40.706782,"longitude":-74.006737,"name":"clarkes standart","phone":"","postal_code":"","street_address":"","website":""},{"id":"5117e9eee4b0030c52df5c45","latitude":40.7145233154,"longitude":-73.9990997314,"name":"espresso cappucino","phone":"","postal_code":"10013","street_address":"","website":""},{"id":"4c524d4594790f4732b274a2","latitude":40.6614856167,"longitude":-73.9911648167,"name":"matts pizza patio","phone":"","postal_code":"11215","street_address":"274 20th st","website":""},{"id":"3fd66200f964a52090e31ee3","latitude":40.77252,"longitude":-73.957117,"name":"sabor a mexico","phone":"2124398301","postal_code":"10075","street_address":"233 e 77th st","website":""},{"id":"4bc2d0684cdfc9b647929621","latitude":40.7612028872,"longitude":-73.9975539875,"name":"the gourmet shoppe","phone":"2122396726","postal_code":"10036","street_address":"560 w 43rd st","website":""},{"id":"49f35e1ef964a520946a1fe3","latitude":40.7591826214,"longitude":-73.9621773162,"name":"the sin bin","phone":"2129809850","postal_code":"10022","street_address":"1070 1st ave","website":"sinbinbar.com"},{"id":"4fdea9dc2eedc6ea7374b31b","latitude":40.743781748,"longitude":-73.9838781523,"name":"gansevoort asselina","phone":"2123172908","postal_code":"10018","street_address":"420 park ave s","website":""},{"id":"4c17d49650389c749264b3cf","latitude":40.7565057731,"longitude":-73.9924177726,"name":"sky room","phone":"2123801195","postal_code":"10018","street_address":"330 w 40th st","website":"skyroomnyc.com"},{"id":"4c82d021dc018cfabe5bd36c","latitude":40.83295785,"longitude":-73.945406,"name":"lucky ho lee","phone":"2122814136","postal_code":"10032","street_address":"3750 broadway","website":""},{"id":"50e6ee9ee4b0fa0f4a65d580","latitude":40.7064348897,"longitude":-74.0093065064,"name":"the terrace at cipriani","phone":"","postal_code":"10005","street_address":"55 wall st","website":""},{"id":"4f7b04dee4b0dd0dafecd9cf","latitude":40.7517894088,"longitude":-74.0063282752,"name":"van leeuwen truck   coffee, ice cream, pastries","phone":"","postal_code":"10001","street_address":"601 w 26th st 2nd floor","website":""}]