[{"id":"cc9e8f40230c6ead2873","latitude":40.739822,"longitude":-73.985144,"name":"chipotle mexican grill","phone":"2126736904","postal_code":"10010","street_address":"125 east 23rd st","website":"chipotle.com\/"},{"id":"81df045e563fb6cab7f7","latitude":40.810765,"longitude":-73.952591,"name":"honey salon inc","phone":"2126630100","postal_code":"10026","street_address":"174 saint nicholas ave","website":""},{"id":"b265cf6c80121211dbfc","latitude":40.74358,"longitude":-73.986127,"name":"palatte","phone":"6464763812","postal_code":"10016","street_address":"66 madison ave","website":"palattenyc.com\/"},{"id":"4fc50abefae5311cc2b3","latitude":40.82882,"longitude":-73.949022,"name":"best taste restaurant","phone":"2122815691","postal_code":"10031","street_address":"3609 broadway","website":""},{"id":"72560dc41f1b7aed0d47","latitude":40.749936,"longitude":-73.983849,"name":"integra hair system inc","phone":"2125636786","postal_code":"10018","street_address":"11 w 36th st  3","website":"integrahair.com\/"},{"id":"23582b3c9e5d269a9ce4","latitude":40.788494,"longitude":-73.943786,"name":"halal jfk fried chicken pizza","phone":"2123692514","postal_code":"10029","street_address":"1998 2nd ave","website":"halaljfkchickenpizza.com\/"},{"id":"7b012a84d02db299fb06","latitude":40.815148,"longitude":-73.939791,"name":"hong kong foid","phone":"2129265689","postal_code":"10037","street_address":"527 09 lenox ave","website":""},{"id":"e772ea49b09a084ee804","latitude":40.797416,"longitude":-73.937459,"name":"aaa laundry","phone":"6466720202","postal_code":"10035","street_address":"2272 2nd ave","website":""},{"id":"e1d1499e736a8e2f4611","latitude":40.722915,"longitude":-73.998114,"name":"whiskey friday","phone":"","postal_code":"10012","street_address":"spring st  crosby st","website":""},{"id":"1e775603ae510e502067","latitude":40.755041,"longitude":-73.977646,"name":"stauback co","phone":"2127105250","postal_code":"10002","street_address":"366 madison ave","website":""},{"id":"851e39b9058a0ff8c07c","latitude":40.735754,"longitude":-73.989382,"name":"tgi fridays","phone":"6465566381","postal_code":"10003","street_address":"34 union sq east","website":"tgifridays.com\/"},{"id":"159336a5c3c298a08c43","latitude":40.74488,"longitude":-73.98118,"name":"prespa","phone":"2128104335","postal_code":"10016","street_address":"184 lexington ave","website":"prespanyc.net\/"},{"id":"9feb6a51c015c8da5206","latitude":40.737783,"longitude":-73.989714,"name":"abc kitchen","phone":"2124755829","postal_code":"10003","street_address":"35 east 18th st","website":"abckitchennyc.com"},{"id":"dc019401b0d004aa29f8","latitude":40.765521,"longitude":-73.980036,"name":"57 wellness spa","phone":"2129563188","postal_code":"10019","street_address":"200 w 57 st","website":"57spa.blogspot.com\/"},{"id":"d6630edfc2157fb39f44","latitude":40.782642558,"longitude":-73.9519487806,"name":"melrose place","phone":"","postal_code":"10021","street_address":"ues","website":""},{"id":"4300f475d007f7c0fb37","latitude":40.740689,"longitude":-73.981531,"name":"huang laundry  dry cleaning","phone":"2124817698","postal_code":"10010","street_address":"215 east 26th st","website":""},{"id":"db4c480b05a30adb4ffb","latitude":40.82328,"longitude":-73.95063,"name":"marcells steak house","phone":"9173277549","postal_code":"10016","street_address":"529 west 141st st","website":"marcell.hilliard.com\/"},{"id":"215553c52c402751ade7","latitude":40.783318,"longitude":-73.94799,"name":"famous original rays pizza","phone":"2123483955","postal_code":"10128","street_address":"1827 2nd ave","website":"rayspizzany.com"},{"id":"2ee7daea7123d316af41","latitude":40.755335,"longitude":-73.983027,"name":"crave sandwiches","phone":"2123987070","postal_code":"10036","street_address":"1120 ave of the americas","website":"crave-sandwiches.com\/"},{"id":"0f66bcf609b332d88f67","latitude":40.725055,"longitude":-73.979482,"name":"parliament of south africa","phone":"2122135583","postal_code":"10009","street_address":"333 east 8th st","website":""},{"id":"34fd7260f2db2c20a243","latitude":40.77284,"longitude":-73.95213,"name":"italian village pizzeria","phone":"2125355950","postal_code":"10075","street_address":"1526 1st ave  1","website":""},{"id":"68f314d59fe3bae2bf28","latitude":40.730358,"longitude":-73.9832,"name":"national cafe","phone":"2124733700","postal_code":"","street_address":"210 1st ave","website":""},{"id":"b76e288ac0079fe772b9","latitude":40.754023,"longitude":-73.995567,"name":"hudson station bar  grill","phone":"2122444406","postal_code":"10001","street_address":"440 9th ave","website":"hudsonstation.com"},{"id":"3c5b258d8858f0c1e616","latitude":40.777606,"longitude":-73.945895,"name":"india garden restaurant","phone":"8002966022","postal_code":"","street_address":"1690 york ave","website":""},{"id":"006b18ff3990337edc5b","latitude":40.739794,"longitude":-73.979801,"name":"deli superette","phone":"","postal_code":"","street_address":"","website":""},{"id":"3113bdd3a1a0bada7b25","latitude":40.813799,"longitude":-73.955947,"name":"amsterdam nails","phone":"2128655715","postal_code":"10027","street_address":"1349 amsterdam ave","website":""},{"id":"1cb92a2251742b947c04","latitude":40.775431,"longitude":-73.956665,"name":"allure catering","phone":"2125850808","postal_code":"10028","street_address":"1422 3rd ave","website":"allurecatering.com\/"},{"id":"c7c0f9f074d700f8ee0f","latitude":40.753399,"longitude":-73.970046,"name":"jimmys gyro","phone":"","postal_code":"10017","street_address":"","website":""},{"id":"47df52eb6560e66d8d88","latitude":40.7984200728,"longitude":-73.9386856556,"name":"el kallejon wine and tapas bar","phone":"9178539167","postal_code":"10035","street_address":"209e 117th st","website":""},{"id":"213f8fca1e24eeeda574","latitude":40.781909,"longitude":-73.95174,"name":"buzz publicity","phone":"2128600500","postal_code":"10128","street_address":"1619 3rd ave  6415","website":"buzzpublicity.com\/"},{"id":"4e826201e1b329269388","latitude":40.7713216362,"longitude":-73.9620108629,"name":"alex cafe  deli","phone":"","postal_code":"10021","street_address":"1018 lexington ave","website":""},{"id":"a09b48378e5618ac4d33","latitude":40.743937,"longitude":-73.983982,"name":"asellina ristorante","phone":"2123172908","postal_code":"10016","street_address":"420 park ave south","website":"togrp.com\/asellina\/"},{"id":"75e0eb5ba9c6463c108a","latitude":40.7617,"longitude":-73.972719,"name":"american corporate of new york","phone":"2126050296","postal_code":"10022","street_address":"575 madison ave","website":""},{"id":"5be7ca603ffa653eea64","latitude":40.750573,"longitude":-73.986006,"name":"mikes pizzeria  cafe","phone":"6469987573","postal_code":"","street_address":"35 w 36th st","website":""},{"id":"80afa95c01dae3ba5434","latitude":40.72849,"longitude":-74.000078,"name":"le poisson rouge","phone":"2125053474","postal_code":"10012","street_address":"158 bleecker st","website":"lepoissonrouge.com\/"},{"id":"ef776284a8196e0aed01","latitude":40.740919,"longitude":-73.97889,"name":"in n\" out pizza","phone":"2122135558","postal_code":"10016","street_address":"493 2nd ave","website":""},{"id":"857a3a752d574c90d3f5","latitude":40.723856,"longitude":-73.993735,"name":"the musket room","phone":"2122190764","postal_code":"10012","street_address":"265 elizabeth st ci","website":""},{"id":"ee5e5208fbf35388fc07","latitude":40.721263,"longitude":-73.979709,"name":"3rd st dry cleaning","phone":"2127770131","postal_code":"10009","street_address":"327 east 3rd st","website":""},{"id":"2bcbfcbf2ab11334e22e","latitude":40.734299,"longitude":-73.999901,"name":"empire szechuan greenwich","phone":"2126911535","postal_code":"10014","street_address":"15 greenwich ave","website":"empiretogo.com\/"},{"id":"2a2da9715f512fec5191","latitude":40.806416,"longitude":-73.942262,"name":"ink hair salon","phone":"2127528989","postal_code":"10017","street_address":"589 5th ave","website":"inkforhair.com\/"},{"id":"bf9647dc373e1c3718d6","latitude":40.857977,"longitude":-73.930904,"name":"frairmont creations llc","phone":"2128891845","postal_code":"10001","street_address":"1201 broadway  903","website":""},{"id":"59111eeb60369e419e83","latitude":40.763,"longitude":-73.986396,"name":"miras lair la la","phone":"","postal_code":"10019","street_address":"306 west 51 st","website":""},{"id":"18e041acb32fc0e9f46f","latitude":40.747513,"longitude":-73.989889,"name":"130 west 30th llc","phone":"2126950962","postal_code":"10001","street_address":"115 west 30th st  208","website":""},{"id":"1f11c3331ceb799b16ef","latitude":40.79801,"longitude":-73.969037,"name":"broadway restaurant","phone":"2128657074","postal_code":"10025","street_address":"2664 broadway","website":""},{"id":"2eae0e6db285b9ec19ff","latitude":40.714398,"longitude":-74.005953,"name":"potbelly sandwich shop","phone":"6462894206","postal_code":"10007","street_address":"280 broadway","website":"potbelly.com\/Shops\/ShopLocator.aspx?PotbellyShopId=264"},{"id":"9364bd750c7e533716ea","latitude":40.7180087055,"longitude":-73.995269967,"name":"leroys lair electric boogarloo room","phone":"","postal_code":"10013","street_address":"108 bowery","website":""},{"id":"2a938ae1a937c7b16026","latitude":40.719838,"longitude":-74.004062,"name":"chinatown dermatology center","phone":"2123349450","postal_code":"10013","street_address":"315 church st  2","website":""},{"id":"f613721b42efe51aaa78","latitude":null,"longitude":null,"name":"toshis living room","phone":"9174328810","postal_code":"10010","street_address":"","website":"livemusicbarnyc.com\/"},{"id":"a4253bcd41f42380cc73","latitude":40.7519650922,"longitude":-73.9911494794,"name":"fuji bakery","phone":"2126297588","postal_code":"10001","street_address":"224 w 35th st","website":""},{"id":"398f1bb102f6d86720c8","latitude":40.7568614416,"longitude":-73.9960963494,"name":"el jardin","phone":"","postal_code":"","street_address":"","website":""},{"id":"933991061e6eebb675e6","latitude":40.771054,"longitude":-73.981495,"name":"lincoln plaza cleaners","phone":"2129691719","postal_code":"10023","street_address":"30 w 63rd st  l","website":""},{"id":"e76a86637580e167ea03","latitude":40.778794,"longitude":-73.975643,"name":"service directions inc","phone":"7182649119","postal_code":"11364","street_address":"219 47 75th ave","website":""},{"id":"ed177dfdbd3a3dc9583f","latitude":40.770932,"longitude":-73.953756,"name":"a matter of health","phone":"2122888280","postal_code":"10075","street_address":"1478 1st ave","website":""},{"id":"19dcca7694e2afa4c81a","latitude":40.764256,"longitude":-73.988195,"name":"pure thai cookhouse","phone":"2125810999","postal_code":"10019","street_address":"766 9th ave","website":"purethaicookhouse.com\/"},{"id":"65657db259aabfb38114","latitude":40.729654,"longitude":-73.988842,"name":"hasaki restaurant","phone":"2124733327","postal_code":"10003","street_address":"210 east 9th st","website":"hasakinyc.com\/"},{"id":"863826f43df4af60461e","latitude":40.727555,"longitude":-73.994646,"name":"freshmade nyc","phone":"","postal_code":"","street_address":"636 broadway","website":""},{"id":"94dde2f8b77474227fd6","latitude":40.787675,"longitude":-73.947556,"name":"emersons rooftop","phone":"","postal_code":"","street_address":"","website":""},{"id":"ec8f959737685a52ed04","latitude":40.7497556416,"longitude":-73.9770886536,"name":"red curry","phone":"2126822883","postal_code":"10016","street_address":"339 lexington ave","website":"redcurryny.com"},{"id":"b154d0c3cfd27f77ca8a","latitude":40.770129,"longitude":-73.990708,"name":"james bentley salon","phone":"2125157936","postal_code":"10019","street_address":"533 west 57th st","website":"jamesbentleysalon.com\/"},{"id":"48a3743d4d5b3e388157","latitude":40.756599,"longitude":-73.986099,"name":"manhattan chili company","phone":"2127308666","postal_code":"10036","street_address":"1500 broadway","website":"manhattanchili43.geomerx.com"},{"id":"14bddf3a8605e1cc60c7","latitude":42.564933,"longitude":-77.596162,"name":"shoprite pharmacy","phone":"7189793393","postal_code":"10306","street_address":"2424 hylan blvd","website":"shoprite.com\/pd\/ShopRite-of-Hylan-Boulevard\/3151598"},{"id":"501e881785633247e7e3","latitude":40.718578,"longitude":-73.960793,"name":"the plank","phone":"","postal_code":"11211","street_address":"216 bedford ave","website":""},{"id":"229a8c433e05eb5f04dd","latitude":40.827466,"longitude":-73.938659,"name":"lace masters","phone":"2126948890","postal_code":"10039","street_address":"2859 frederick douglass blvd","website":""},{"id":"4aba06e583a362f945e2","latitude":40.834302,"longitude":-73.94483,"name":"subs deli","phone":"2122342128","postal_code":"10032","street_address":"3787 broadway","website":""},{"id":"ad3c6ccbf68b1fc8ae90","latitude":40.746619,"longitude":-73.989659,"name":"lancy ny","phone":"2122133385","postal_code":"","street_address":"51 w 29th st","website":""},{"id":"32042e3814de1a484f2e","latitude":40.719285,"longitude":-73.996863,"name":"nyonya","phone":"2123343669","postal_code":"10013","street_address":"199 grand st","website":"ilovenyonya.com\/"},{"id":"42471f1069230e9db9e6","latitude":40.74572,"longitude":-73.999125,"name":"patsys pizzeria","phone":"6464867400","postal_code":"10011","street_address":"318 w 23rd st","website":"patsyspizzeriany.com\/"},{"id":"c7b7ecedb9e565bd1f79","latitude":40.743946,"longitude":-73.985596,"name":"smk wines and liquors","phone":"2126857651","postal_code":"","street_address":"23 e 28th st","website":""},{"id":"b9141056d2e67aa86c10","latitude":40.782224,"longitude":-73.80333,"name":"dunkin donuts","phone":"7187467915","postal_code":"11357","street_address":"1755 francis lewis blvd","website":"dunkindonuts.com\/"},{"id":"c415077b9c5a519d607f","latitude":40.796173,"longitude":-73.935448,"name":"dunkin donuts","phone":"","postal_code":"10035","street_address":"2258 1st ave aka 401 403 east 116th st","website":"dunkindonuts.com"},{"id":"9b3370f3ea33333a79ec","latitude":40.76457,"longitude":-73.973636,"name":"tgi fridays","phone":"2125637440","postal_code":"10036","street_address":"560 5th ave","website":"tgifridays.com\/"},{"id":"54cd76f7c1cb52c65989","latitude":40.7590579542,"longitude":-73.978972435,"name":"nbc local media 6th floor cafe","phone":"","postal_code":"10112","street_address":"30 rockefeller plz","website":""},{"id":"f4aab43daab163f04fa3","latitude":40.744127,"longitude":-73.993586,"name":"make up artists  hair stylist","phone":"2128371144","postal_code":"10011","street_address":"152 west 24th st","website":""},{"id":"c9efa98e92ea698643ea","latitude":40.752528,"longitude":-73.970307,"name":"ali baba terrace","phone":"2128888623","postal_code":"10017","street_address":"862 2nd ave","website":"orderalibabasterrace.com"},{"id":"22019cba8af673fb06bb","latitude":40.785946,"longitude":-73.976285,"name":"homers world famous malt shop","phone":"2124960777","postal_code":"10024","street_address":"487 amsterdam ave","website":"homersworldfamous.com"},{"id":"27af9c4033e1f17fee8d","latitude":40.81895,"longitude":-73.9522,"name":"wing ko","phone":"2129265000","postal_code":"10031","street_address":"1520 amsterdam ave","website":""},{"id":"1a75a3bb2b8e2231c601","latitude":40.777677,"longitude":-73.96323,"name":"navan lounge","phone":"7182968111","postal_code":"11416","street_address":"94 02 80th st","website":""},{"id":"d120a41ff75cd52966ac","latitude":40.735468,"longitude":-73.992795,"name":"young french cleaner","phone":"2126273624","postal_code":"10003","street_address":"22 east 14th st","website":""},{"id":"32746c0baf918ca5af95","latitude":40.840825,"longitude":-73.936465,"name":"foo sing kitchen","phone":"2125680689","postal_code":"10032","street_address":"2200 amsterdam ave","website":""},{"id":"61daa65f1748c02dd516","latitude":40.781841,"longitude":-73.954033,"name":"trafalgar cleaners ltd","phone":"2123487440","postal_code":"10128","street_address":"1352 lexington ave","website":""},{"id":"1d0c8cf9dd34944a3953","latitude":40.803,"longitude":-73.95641,"name":"society coffee","phone":"2122223323","postal_code":"10026","street_address":"2104 frederick douglass blvd","website":""},{"id":"ca8cb431b88c79cd8e18","latitude":40.782831,"longitude":-73.951246,"name":"chinatown east restaurant","phone":"2129873500","postal_code":"10128","street_address":"1650 3rd ave","website":"chinatowneastnyc.com\/"},{"id":"1223c14286efdcde038b","latitude":40.721769,"longitude":-73.987394,"name":"max fish","phone":"2125293959","postal_code":"10002","street_address":"178 ludlow st","website":"maxfish.com\/"},{"id":"bb6dac44e81f06b17984","latitude":40.776184,"longitude":-73.956126,"name":"mad river bar  grill","phone":"2129881832","postal_code":"10028","street_address":"1442 3rd ave","website":"madrivergrille.com\/"},{"id":"d339a035c8c63818d067","latitude":40.76395,"longitude":-73.974088,"name":"central park zoo security","phone":"2124396557","postal_code":"10065","street_address":"830 5th ave","website":"centralparkzoo.com\/"},{"id":"c67dbd7a182091fcf26d","latitude":40.731382,"longitude":-74.00651,"name":"campbell caters glen campbell","phone":"2128071726","postal_code":"","street_address":"456 hudson st","website":""},{"id":"4135dbfeb0f32f08e169","latitude":40.768228,"longitude":-73.952721,"name":"david copperfields","phone":"2127346152","postal_code":"10021","street_address":"1394 york ave 1","website":"davidcopperfields.com\/"},{"id":"f285733843e78bbb6a14","latitude":40.8641481826,"longitude":-73.9251522747,"name":"rancho los compadres","phone":"2125691002","postal_code":"10034","street_address":"110 sherman ave","website":""},{"id":"f57b0b1c65b5da63527d","latitude":40.740104,"longitude":-73.988673,"name":"gramercy cleaners","phone":"2125336848","postal_code":"10010","street_address":"44 e 22nd st  1","website":""},{"id":"825acefd3e298274a150","latitude":40.643772,"longitude":-73.781993,"name":"greenwich village bistro","phone":"7187512890","postal_code":"11430","street_address":"john f kennedy international airport","website":""},{"id":"30ed9c99e5054e0fdd14","latitude":40.7647110822,"longitude":-73.9834247613,"name":"54 gourmet","phone":"2127670009","postal_code":"10019","street_address":"250 west 54th st","website":""},{"id":"cda11aae6d28396e6aae","latitude":40.747514,"longitude":-73.88612,"name":"true colors bar","phone":"7186727505","postal_code":"11372","street_address":"79 15 roosevelt ave","website":"truecolorsbarnyc.com\/"},{"id":"d0a3e507a7f6d5ff2b10","latitude":40.739405,"longitude":-74.006449,"name":"ryu","phone":"2127761446","postal_code":"10014","street_address":"46 gansevoort st","website":"ryunyc.com"},{"id":"2122d546f35897748101","latitude":40.779555,"longitude":-73.975153,"name":"the potato place","phone":"2127559090","postal_code":"10023","street_address":"west 76th st","website":""},{"id":"dbff155162a04485b8eb","latitude":40.743737862,"longitude":-73.9858581384,"name":"the kitchen at dramafever","phone":"","postal_code":"10016","street_address":"72 madison ave floor 12","website":""},{"id":"e4b851ca4a874c664f6e","latitude":40.705576,"longitude":-74.013664,"name":"71 cleaners","phone":"2122483529","postal_code":"10006","street_address":"71 broadway","website":""},{"id":"59e11cc11a9909517bdd","latitude":40.7292,"longitude":-74.0015,"name":"gus place","phone":"2127771660","postal_code":"10012","street_address":"192 bleecker st","website":"gusplacenyc.com"},{"id":"c170270283ef870d546b","latitude":40.766195,"longitude":-73.977825,"name":"exhale spa","phone":"2125617400","postal_code":"10019","street_address":"150 central park south","website":"exhalespa.com\/locations\/midtown"},{"id":"fcc7fcee517f9770a167","latitude":40.723478,"longitude":-73.988254,"name":"igors clean cuts east village barbershop","phone":"2125390952","postal_code":"10009","street_address":"20 1st ave","website":""},{"id":"270713ebe9c60e589b78","latitude":40.761543,"longitude":-73.983995,"name":"dont tell mamma bar","phone":"","postal_code":"","street_address":"","website":""},{"id":"37755df0fcdd7de21941","latitude":40.77815,"longitude":-73.956299,"name":"coffee cart","phone":"","postal_code":"10022","street_address":"85th and lexington","website":""},{"id":"757acdddc305f3603853","latitude":40.7841795017,"longitude":-73.9772436152,"name":"luca  bosco ice cream social","phone":"","postal_code":"10024","street_address":"170 w 81st st","website":""},{"id":"b0a025cd2d3e8e8c0621","latitude":40.806416,"longitude":-73.942262,"name":"the esthetics resource","phone":"2125323050","postal_code":"10016","street_address":"303 5th ave 712","website":"theestheticsresource.com\/"},{"id":"29cc2329ed7e31224f5b","latitude":40.732743,"longitude":-73.99138,"name":"le pain quotidien","phone":"2126775277","postal_code":"10003","street_address":"801 broadway","website":"lepainquotidien.com\/"},{"id":"1c8b3d9c1001f294ee1f","latitude":40.7705970779,"longitude":-73.9917635409,"name":"the green door","phone":"","postal_code":"10019","street_address":"","website":""},{"id":"4b844d0dc2f827359507","latitude":40.825572,"longitude":-73.943885,"name":"cafe bon jour","phone":"2126908080","postal_code":"","street_address":"741 saint nicholas ave","website":""},{"id":"6d124e29b472ed4156e2","latitude":40.731839,"longitude":-73.984168,"name":"new country day camp","phone":"2127800800","postal_code":"10024","street_address":"344 east 14th st","website":"newcountrydaycamp.org\/"},{"id":"ce2ea48953f2021c6d8c","latitude":40.761062,"longitude":-73.98549,"name":"serafina at the time hotel","phone":"2122471000","postal_code":"10019","street_address":"224 west 49th st the time hotel","website":"serafinaatthetime.com\/"},{"id":"5e362ab33a567889a153","latitude":40.747359,"longitude":-73.976907,"name":"uni k wax center","phone":"2124812777","postal_code":"10016","street_address":"553 3rd ave","website":"unikwax.com\/"},{"id":"3b0152b066c4e1422ad1","latitude":40.736601,"longitude":-73.981841,"name":"hollywood haircutters","phone":"2124608705","postal_code":"10010","street_address":"362 2nd ave","website":""},{"id":"1a00f12a411841bc00d9","latitude":40.748545,"longitude":-73.975874,"name":"margarita murphys","phone":"2126844421","postal_code":"10016","street_address":"591 3rd ave","website":"margaritamurphys.com\/"},{"id":"5d3f6ddbbdec65b61f51","latitude":40.850673,"longitude":-73.93765,"name":"new york silver nails","phone":"2127950053","postal_code":"10033","street_address":"754 west 181st st","website":""},{"id":"a7e281eb14e6bee3b9c3","latitude":40.707742,"longitude":-74.005615,"name":"cafe gusto","phone":"2127912700","postal_code":"10038","street_address":"111 john st","website":"cafegustotogo.com\/"},{"id":"2b1396b9e774dd51e94a","latitude":40.770508,"longitude":-73.980229,"name":"berger cleaners","phone":"2122651670","postal_code":"10023","street_address":"4 west 63rd st","website":""},{"id":"88a36ed69da5138880bd","latitude":40.726292,"longitude":-73.985728,"name":"caravan of dreams","phone":"2122541613","postal_code":"10009","street_address":"405 east 6th st","website":"caravanofdreams.net\/"},{"id":"bedd46e28135b60cb2e9","latitude":40.7368058,"longitude":-73.98686,"name":"71 irving place","phone":"2129955252","postal_code":"10003","street_address":"71 irving pl","website":"irvingfarm.com\/"},{"id":"3ce5c112b5b9c6130586","latitude":40.714525,"longitude":-74.010127,"name":"bengal curry  kabab","phone":"2125711122","postal_code":"10007","street_address":"65 w broadway","website":"bengalcurrykebabnyc.com"},{"id":"011a8455ce814a367447","latitude":40.775627,"longitude":-73.952993,"name":"big daddys   upper east side","phone":"2127172020","postal_code":"10028","street_address":"1596 2nd ave","website":"bigdaddysnyc.com"},{"id":"f45d8dc3ca3d04679dc9","latitude":40.806416,"longitude":-73.942262,"name":"new yorker snack bar","phone":"2126826896","postal_code":"10017","street_address":"503 5th ave","website":""},{"id":"585012d00873f3298ebb","latitude":40.757824,"longitude":-73.963222,"name":"avondale caterers","phone":"2127529295","postal_code":"10022","street_address":"1032 1st ave","website":""},{"id":"5e052fa25f71dc1927b0","latitude":40.7593029335,"longitude":-73.9678251641,"name":"deliteria deli","phone":"2127554520","postal_code":"10022","street_address":"1061 2nd ave","website":""},{"id":"9e2b4ec1b8c994ed4f5e","latitude":40.806416,"longitude":-73.942262,"name":"sephora","phone":"2129806534","postal_code":"10017","street_address":"597 5th ave","website":"sephora.com\/about\/individual\/individualStore.jsp?storeId=0374"},{"id":"97a3ff139e7b54c28df7","latitude":40.7400016785,"longitude":-73.9760360718,"name":"tia rositas taco cart","phone":"","postal_code":"10016","street_address":"","website":""},{"id":"fd02bb3b23be2c34ddb9","latitude":40.725532,"longitude":-74.002835,"name":"the paolet","phone":"","postal_code":"10012","street_address":"","website":""},{"id":"65d7f5c35840e94e3a98","latitude":40.729045,"longitude":-74.000363,"name":"sullivan street tea  spice company","phone":"2123878702","postal_code":"10012","street_address":"208 sullivan st","website":""},{"id":"6c751a25cacd29e562bf","latitude":40.747972234,"longitude":-74.0040779114,"name":"don giovanni ristorante","phone":"2122429054","postal_code":"10011","street_address":"214 10th ave","website":"dongiovanni-ny.com"},{"id":"8e28b33e41086982d658","latitude":40.7282832113,"longitude":-73.9955914021,"name":"think coffee","phone":"2122286226","postal_code":"10012","street_address":"248 mercer st","website":"thinkcoffeenyc.com"},{"id":"a1b151935bf166cd41ae","latitude":40.726755,"longitude":-73.987169,"name":"2 swords tavern","phone":"","postal_code":"10003","street_address":"330 e 6th st","website":""},{"id":"f1c17749ff3d39af1c8c","latitude":40.727161,"longitude":-73.986394,"name":"velvet cigar lounge","phone":"2125335582","postal_code":"10003","street_address":"80 east 7th st","website":"velvetcigars.com\/"},{"id":"5215338e223d0944ab53","latitude":40.732962,"longitude":-73.993456,"name":"patsys pizzeria","phone":"2125333500","postal_code":"10003","street_address":"67 university pl","website":"patsyspizzeriany.com\/"},{"id":"2703d80fb4030bd96eec","latitude":40.724903,"longitude":-74.002449,"name":"bens pizza","phone":"2129664494","postal_code":"10012","street_address":"177 spring st","website":""},{"id":"02055a6ae4867df879cb","latitude":40.756488,"longitude":-73.983948,"name":"long room restaurant","phone":"2129973933","postal_code":"10036","street_address":"120 w 44th st  1","website":"thelongroomnyc.com\/"},{"id":"b78a4d356c46e2ed7a08","latitude":40.730218,"longitude":-74.000298,"name":"mamouns restaurant","phone":"2126748685","postal_code":"10012","street_address":"119 macdougal st","website":"mamounsfalafel.com"},{"id":"f62c97c445ce98d4ca7a","latitude":40.781169,"longitude":-73.952264,"name":"dolce","phone":"2124101585","postal_code":"10128","street_address":"1595 3rd ave","website":"dolcenyc.com\/"},{"id":"d34407500c7d02b4fcd3","latitude":40.729074,"longitude":-74.001507,"name":"burger joint","phone":"2122542380","postal_code":"","street_address":"190 bleecker st","website":""},{"id":"c8169f032fdcae9d7120","latitude":40.71352,"longitude":-73.996116,"name":"new york carpet cleaning","phone":"3156299628","postal_code":"10002","street_address":"49 east broadway","website":""},{"id":"1a88be06258656dfdfc0","latitude":40.7526586267,"longitude":-74.0006327811,"name":"absolut interiors lounge","phone":"2126771100","postal_code":"10002","street_address":"87 ludlow st","website":"ucloungenyc.com\/"},{"id":"aa8e038d62f4fc3e3693","latitude":40.757041,"longitude":-73.973576,"name":"crossfit gotham","phone":"9175756336","postal_code":"10022","street_address":"109 east 50th st","website":"crossfitgotham.com\/"},{"id":"4704d5bb6bfb1b9a3bb2","latitude":40.713489,"longitude":-74.0084,"name":"moksha","phone":"2126080707","postal_code":"10007","street_address":"18 murray st","website":""},{"id":"57f4c0f2e705ba20d17a","latitude":40.72385,"longitude":-73.99698,"name":"juice generation","phone":"2123341088","postal_code":"10012","street_address":"69 prince st","website":"juicegeneration.com\/"},{"id":"1099651e7d6a604a05d4","latitude":40.734215,"longitude":-74.006394,"name":"bourbon st","phone":"2123370988","postal_code":"10014","street_address":"529 hudson st","website":"bourbonstreetpantry.com"},{"id":"458a7b93f735964729ce","latitude":40.772541,"longitude":-73.957064,"name":"sabor a mexico ii","phone":"2124398301","postal_code":"10075","street_address":"233 east 77th st","website":""},{"id":"fc2674ad877664296cc7","latitude":40.754447,"longitude":-73.989253,"name":"enrico ferezi inc","phone":"2128681378","postal_code":"10018","street_address":"214 west 39th st","website":""},{"id":"5ca7347bfd9bc8eefe53","latitude":40.7505650277,"longitude":-73.9763224125,"name":"happy hour social event to benefit the crohns and colitis foundation of america","phone":"","postal_code":"10017","street_address":"140 east 41st st","website":""},{"id":"5ee85b8720fe68b892cf","latitude":40.714366,"longitude":-73.981683,"name":"pizza shack","phone":"2124773367","postal_code":"10002","street_address":"525 grand st","website":"pizzashacknyc.com\/"},{"id":"2b02c737979dd30050b3","latitude":40.727176,"longitude":-73.992004,"name":"slayers spot","phone":"","postal_code":"10003","street_address":"2 cooper sq","website":""},{"id":"290fab62092d113fb4e0","latitude":40.728031,"longitude":-73.985154,"name":"ippin sushi, tapas  noodle bar","phone":"6465471238","postal_code":"10003","street_address":"141 1st ave","website":"ippinnyc.com\/"},{"id":"4784f2c1c3244dadb725","latitude":40.736002,"longitude":-73.99116,"name":"definition 6","phone":"2123677272","postal_code":"10003","street_address":"19 union sq west","website":"definitions.com"},{"id":"e82fe33ee0d42fb6ec55","latitude":40.631448,"longitude":-73.98495,"name":"candy land","phone":"7184369308","postal_code":"11204","street_address":"4819 16th ave","website":""},{"id":"8ef4636ba0fcf7830cc8","latitude":41.552984,"longitude":-73.967807,"name":"jasons riverside grill","phone":"2129898400","postal_code":"10011","street_address":"62 chelsea piers","website":""},{"id":"11b2472a2b65291cf09f","latitude":40.746674,"longitude":-73.988578,"name":"celebrity parfums","phone":"2124816125","postal_code":"10001","street_address":"1225 broadway","website":""},{"id":"b7b545a72951e32e8edf","latitude":40.7988799483,"longitude":-73.9297047273,"name":"the spot mary gives head","phone":"","postal_code":"10035","street_address":"","website":""},{"id":"d2a673bae5b9e0af0441","latitude":40.702656,"longitude":-74.009934,"name":"el gringo","phone":"","postal_code":"10041","street_address":"water st","website":""},{"id":"c69337422f43b2ac953a","latitude":40.611995,"longitude":-73.983589,"name":"bay parkway cafe inc","phone":"7182328008","postal_code":"11204","street_address":"6812 bay pkwy","website":""},{"id":"cf185908698c73c01216","latitude":40.834164,"longitude":-73.944907,"name":"singluck kitchen","phone":"2126904881","postal_code":"10032","street_address":"3783 broadway  a","website":""},{"id":"499046b20c7a266b8f7c","latitude":40.777802,"longitude":-73.9785,"name":"sqc food production","phone":"2125790433","postal_code":"","street_address":"270 columbus ave","website":""},{"id":"f159b60d9c507d90305e","latitude":40.8096,"longitude":-73.958864,"name":"panino sportivo roma","phone":"2126622066","postal_code":"10027","street_address":"1231 amsterdam ave","website":"paninosportivo.com"},{"id":"cc5de3f3f4972d2ce743","latitude":40.857977,"longitude":-73.930904,"name":"sweetriot","phone":"2123431844","postal_code":"10012","street_address":"670 broadway  302","website":"sweetriot.com\/"},{"id":"b751b54ee00cb55552e0","latitude":40.727559,"longitude":-73.985522,"name":"lulus nails","phone":"2129825030","postal_code":"10003","street_address":"129 1st ave","website":""},{"id":"d3b999c16ca6bf161a93","latitude":40.79238,"longitude":-73.973826,"name":"telio","phone":"2125803700","postal_code":"10025","street_address":"2479 broadway","website":"telionyc.com"},{"id":"1c0aaa5507e2ea4dcac2","latitude":40.727584,"longitude":-73.983931,"name":"love more salon","phone":"2124754040","postal_code":"10009","street_address":"428 e 9th st  1","website":"sites.google.com\/site\/lovemoresalon\/"},{"id":"0549adc9c4d1794a2c3b","latitude":40.805698,"longitude":-73.9384,"name":"baked in the hood","phone":"2122894558","postal_code":"","street_address":"1841 park ave","website":""},{"id":"c887cab88eca2865d2da","latitude":40.740089,"longitude":-74.007421,"name":"arium","phone":"2124638630","postal_code":"10014","street_address":"31 little west 12th st","website":"ariumnyc.com"},{"id":"f3939e2677c7b939ca50","latitude":40.7614730589,"longitude":-73.9786956572,"name":"havana dees cigar lounge","phone":"","postal_code":"","street_address":"","website":""},{"id":"b4ee636eb4b4a1ba12d0","latitude":40.748445,"longitude":-73.988419,"name":"martinique cafe","phone":"2122446523","postal_code":"10001","street_address":"1260 broadway","website":"martiniquecafe.com"},{"id":"c8f07c117b399b3509e2","latitude":40.729196,"longitude":-74.003796,"name":"ditch plains   west village","phone":"2126330202","postal_code":"10014","street_address":"29 bedford st","website":"ditch-plains.com"},{"id":"22ff944ad55370c00c98","latitude":40.718772,"longitude":-73.98591,"name":"antibes bistro","phone":"2125336088","postal_code":"10002","street_address":"112 suffolk st","website":"antibesbistro.com\/"},{"id":"90e078fd2c685f6f1ae7","latitude":40.73474,"longitude":-73.998764,"name":"aja asian cuisin","phone":"2122537100","postal_code":"10011","street_address":"432 ave of the americas","website":"orderajanyc.com"},{"id":"f3dfe9cd9195f4ad6efa","latitude":40.740069,"longitude":-73.998896,"name":"kwik wash laundromat  dry","phone":"2122436640","postal_code":"10011","street_address":"211 west 16th st","website":""},{"id":"b4535f2a980ee431d8e1","latitude":40.767633,"longitude":-73.984711,"name":"bellisima hair designs","phone":"2122301899","postal_code":"10022","street_address":"357 e 57th st  1","website":""},{"id":"a33943b13a08ffd5aa9b","latitude":40.724248,"longitude":-74.002189,"name":"barolo","phone":"2122261102","postal_code":"10012","street_address":"398 west broadway","website":"nybarolo.com"},{"id":"73c7a1ce97235bc61590","latitude":40.707184,"longitude":-74.001923,"name":"united seafood","phone":"2125715620","postal_code":"","street_address":"111 south st","website":""},{"id":"04677403b1d6c6a6507a","latitude":40.726748,"longitude":-74.002719,"name":"shortys32","phone":"2123758275","postal_code":"10021","street_address":"199 prince st","website":"shortys32.com\/"},{"id":"e685b2ae722b737f1a9a","latitude":40.7575,"longitude":-73.980232,"name":"laser connection of new york","phone":"2125759054","postal_code":"10036","street_address":"66 west 47th st","website":""},{"id":"74357099d92786a9ac8f","latitude":40.810765,"longitude":-73.952591,"name":"lindo xii llc","phone":"2128667766","postal_code":"10026","street_address":"185 saint nicholas ave","website":""},{"id":"58b11142308f8e39d59e","latitude":40.744597,"longitude":-73.999185,"name":"foragers city grocer chelsea","phone":"2122438888","postal_code":"10011","street_address":"233 8th ave","website":"foragerscitygrocer.com\/city-grocer.html"},{"id":"c99ae35e728614b59af0","latitude":40.76852,"longitude":-73.989018,"name":"hanci turkish cuisine","phone":"2127078144","postal_code":"10019","street_address":"854 10th ave","website":"hanciturkishcuisine.com\/"},{"id":"22247362cb83b1ef923d","latitude":40.748933,"longitude":-73.989631,"name":"eyebrow express","phone":"2125945901","postal_code":"10001","street_address":"140 west 32nd st","website":""},{"id":"73b35f26fd6ce07c5882","latitude":40.714194,"longitude":-73.997868,"name":"tasty hand pulled noodles","phone":"2127911817","postal_code":"10038","street_address":"1 doyers st","website":"tastyhandpullednoodles.com"},{"id":"68e7ae418b15c52be1bc","latitude":40.75165,"longitude":-73.988383,"name":"chopstick house","phone":"2128688090","postal_code":"10018","street_address":"130 west 36th st","website":"chopstickhousenyc.com\/"},{"id":"98bf08ab9d506d862789","latitude":40.719374,"longitude":-74.009496,"name":"mai house","phone":"2129650170","postal_code":"10013","street_address":"186 franklin st","website":"myriadrestaurantgroup.com"},{"id":"9b18122f9175db28d5ab","latitude":40.71296,"longitude":-73.990133,"name":"new rosas dry cleaners  tailor","phone":"2123851683","postal_code":"10002","street_address":"26 rutgers st  1","website":""},{"id":"97474161a4d8225ec7a7","latitude":40.739861,"longitude":-73.991438,"name":"paul evans caterers","phone":"2123211822","postal_code":"10010","street_address":"20 west 20th st","website":"cateredevent.com\/"},{"id":"46c478f6cfb8e9aa6288","latitude":40.8228380405,"longitude":-73.9453268051,"name":"crown fried chicken","phone":"2129390011","postal_code":"10031","street_address":"701 st nicholas ave","website":"crownfriedchicken.com"},{"id":"0a28f2497518cc19f7e5","latitude":40.720648,"longitude":-73.985365,"name":"azul argentine bistro","phone":"6466022004","postal_code":"10002","street_address":"152 stanton st","website":"azulnyc.com"},{"id":"90f1f0ff7356bc4cac1b","latitude":40.907976,"longitude":-73.903794,"name":"suki nail salon","phone":"7187967783","postal_code":"10471","street_address":"5906 riverdale ave","website":""},{"id":"4582352dc2c008a3b836","latitude":40.769253,"longitude":-73.96091,"name":"graces market place","phone":"2127343661","postal_code":"10021","street_address":"1237 3rd ave","website":"gracesmkt.com\/"},{"id":"c4776eec313861c66aa0","latitude":40.7898075571,"longitude":-73.9733236212,"name":"spice","phone":"2127245000","postal_code":"10024","street_address":"610 amsterdam ave","website":"spicethainyc.com\/"},{"id":"aa1a19ac24d320f5f5b4","latitude":40.773976,"longitude":-73.94855,"name":"slayton cleaners inc","phone":"2129881290","postal_code":"10028","street_address":"1565 york ave","website":""},{"id":"6d177ce7b2dc66937d35","latitude":40.764653,"longitude":-73.981772,"name":"ava lounge","phone":"2129567020","postal_code":"10019","street_address":"210 w 55th st","website":"avaloungenyc.com\/"},{"id":"15448a049b68fbd1fdbb","latitude":40.72859,"longitude":-74.000184,"name":"falucka lounge","phone":"2127774555","postal_code":"10012","street_address":"162 bleecker st","website":"faluckany.com\/"},{"id":"a165452fec4c445a9677","latitude":40.745058,"longitude":-73.978607,"name":"1 fortune nails inc","phone":"2122133535","postal_code":"10016","street_address":"201 e 33rd st  3","website":""},{"id":"a0147ebbb5ec47d10241","latitude":40.702898,"longitude":-74.010241,"name":"blu nyc","phone":"6464844330","postal_code":"10001","street_address":"127 w 28th st","website":"indigochelsea.com"},{"id":"83660f07c2671900ccc6","latitude":40.745758,"longitude":-73.996226,"name":"california pizza kitchen","phone":"2128692988","postal_code":"10001","street_address":"262 w 25th st","website":"cpk.com"},{"id":"0fdfcd65c3a34afbf20f","latitude":40.7659438018,"longitude":-73.9908797508,"name":"city lights diner","phone":"2127575345","postal_code":"10019","street_address":"764 10th ave","website":"citylightsnyc.com"},{"id":"271050fdefabf58c6527","latitude":40.765934,"longitude":-73.990876,"name":"crispins","phone":"9173706186","postal_code":"10019","street_address":"764 10th ave","website":"crispinsnyc.com\/"},{"id":"de81bb98415b4d4ba2bc","latitude":40.729866,"longitude":-74.009884,"name":"the westway","phone":"2126200101","postal_code":"10014","street_address":"75 clarkson st","website":"westwaynyc.com\/"},{"id":"d15bb161fd1182354c8b","latitude":40.767994,"longitude":-73.958998,"name":"giorgios brick oven and wine bar","phone":"2126288419","postal_code":"10021","street_address":"1343 2nd ave","website":"giorgiosbrickovennyc.com"},{"id":"ed3932572cd4a0cc11e8","latitude":40.7841329847,"longitude":-73.9776224098,"name":"brother jimmys bbq","phone":"2125017515","postal_code":"10024","street_address":"428 amsterdam ave","website":"brotherjimmys.com"},{"id":"65523c954537a0f3e211","latitude":40.7186896893,"longitude":-74.0051805822,"name":"da mikele","phone":"2129258800","postal_code":"10013","street_address":"275 church st","website":"damikele.com"},{"id":"1a47bb557555372fe08c","latitude":40.857977,"longitude":-73.930904,"name":"rose alcido","phone":"2122426965","postal_code":"10010","street_address":"1133 broadway 1005","website":"rosealcido.com\/"},{"id":"7bca236c51276681a594","latitude":40.717979,"longitude":-73.997629,"name":"rudy pizzeria  restaurant","phone":"2129411025","postal_code":"10013","street_address":"174 hester st","website":""},{"id":"3136f16372cb4b701dc3","latitude":40.772414,"longitude":-73.949904,"name":"starbucks","phone":"2124723581","postal_code":"10028","street_address":"1515 york ave","website":"starbucks.com\/"},{"id":"698b729b56b1a3a0e79d","latitude":40.744107,"longitude":-73.989421,"name":"krav maga academy nyc   matan gavish","phone":"2122133196","postal_code":"10010","street_address":"25 west 26th st 6","website":"kravmagasolutions.com\/"},{"id":"bbfea19bc34e01103783","latitude":40.774909,"longitude":-73.976912,"name":"travel clinics of america","phone":"2124965800","postal_code":"10023","street_address":"101 central park west","website":"travelclinicsofamerica.com\/profiles\/pwiseman.html"},{"id":"4fb4cf7c21ffe586fc15","latitude":40.7036,"longitude":-74.01375,"name":"starbucks coffee","phone":"2127551339","postal_code":"10022","street_address":"1 e 57th st","website":"starbucks.com\/"},{"id":"b9b121eaa2dc3dd570ef","latitude":40.826015,"longitude":-73.95049,"name":"el morocco","phone":"2129390909","postal_code":"10031","street_address":"3534 broadway","website":"elmorocconyc.com"},{"id":"b557536ad2469c7debea","latitude":40.76457,"longitude":-73.973636,"name":"fifth avenue carpet cleaners","phone":"3474705341","postal_code":"10001","street_address":"334 5th ave  9037","website":""},{"id":"d27bf532fa37d8e718ba","latitude":40.707407,"longitude":-74.011029,"name":"som new york","phone":"2122989300","postal_code":"10005","street_address":"14 wall st","website":"som.com\/content.cfm\/contact_details?office=NYC"},{"id":"219c994dcc53f891ec26","latitude":40.7654136006,"longitude":-73.9572353137,"name":"yogurtland","phone":"","postal_code":"10065","street_address":"1275 1st ave","website":""},{"id":"edb83c5079525cd8efa7","latitude":40.760525,"longitude":-73.972627,"name":"salon ishi","phone":"2128884744","postal_code":"10022","street_address":"70 e 55th st  a","website":"salonishi.com\/"},{"id":"ba42f6bed0a897adf0bf","latitude":40.746273465,"longitude":-73.9776568457,"name":"jackson hole","phone":"2126793264","postal_code":"10016","street_address":"521 3rd ave","website":"jacksonhole3rdavenyc.com"},{"id":"6384bd1ea9fd6604e7d7","latitude":40.734399,"longitude":-73.992261,"name":"vapiano","phone":"2127779477","postal_code":"10003","street_address":"113 university pl","website":"vapiano.com\/"},{"id":"5f315252d5a2c497aa54","latitude":40.764304,"longitude":-73.980913,"name":"starbucks","phone":"2125862142","postal_code":"10019","street_address":"870 7th ave","website":"starbucks.com\/"},{"id":"817d5c7c70f675945e92","latitude":40.703968,"longitude":-74.010386,"name":"teriyaki town","phone":"2127421919","postal_code":"10004","street_address":"77 pearl st","website":""},{"id":"e863ac06811e469bde9b","latitude":40.749985,"longitude":-73.977439,"name":"nirvana","phone":"2129830000","postal_code":"10001","street_address":"346 lexington ave","website":"nirvanany.com"},{"id":"d0123fe28d35278af457","latitude":40.738719,"longitude":-73.983412,"name":"third avenue carpet cleaning","phone":"3476202578","postal_code":"10010","street_address":"296 3rd ave  1203","website":""},{"id":"3ba0da421bfb8823cb6b","latitude":40.725192,"longitude":-73.997082,"name":"asanda aveda spa lounge","phone":"2129660219","postal_code":"10012","street_address":"598 broadway","website":"asandaspa.com\/offers\/inwe01\/hair"},{"id":"ba7e4abf087bb31e949a","latitude":40.7387665935,"longitude":-73.9998024702,"name":"sence deli","phone":"2124141160","postal_code":"10011","street_address":"201 w 14th st","website":""},{"id":"a6805274e624fe152f8b","latitude":40.7094001312,"longitude":-74.0082793375,"name":"vivi bubble tea","phone":"2123236969","postal_code":"10038","street_address":"39 john st","website":"vivibubbletea.com"},{"id":"75cfe2bd7b83d1fb6c59","latitude":40.74618,"longitude":-73.997672,"name":"brooklyn bagel  coffee co","phone":"2129242824","postal_code":"10001","street_address":"286 8th ave 1","website":"bkbagel.com\/"},{"id":"92cc4c063bfed12aa080","latitude":40.706717,"longitude":-74.002638,"name":"s  m fish co","phone":"2122275627","postal_code":"10038","street_address":"102 south st","website":""},{"id":"3d94196de9441f28fdd6","latitude":40.764483,"longitude":-73.984648,"name":"ms buffys french cleaners","phone":"2125863945","postal_code":"10019","street_address":"899 8th ave","website":""},{"id":"3845db4ea9cdf588f3b3","latitude":40.739908,"longitude":-73.982435,"name":"big city kitchen","phone":"2125327997","postal_code":"","street_address":"333 3rd ave","website":""},{"id":"1c23bdd89b4213361b97","latitude":40.729012,"longitude":-74.000905,"name":"currywurst bros","phone":"9172658317","postal_code":"10012","street_address":"182 bleecker st","website":"currywurstbros.com\/index_location.html"},{"id":"e86451673adc18f4ac1f","latitude":40.740817,"longitude":-73.991672,"name":"domel","phone":"2124734283","postal_code":"10010","street_address":"46 east 21st st","website":"domelstudio.com\/"},{"id":"b960aefb329de4309826","latitude":40.81977,"longitude":-73.93672,"name":"rainbow nail spa","phone":"2124919392","postal_code":"10037","street_address":"685 malcolm x blvd  2","website":""},{"id":"30dc1849e809842ddf9d","latitude":40.751886168,"longitude":-73.9945239243,"name":"ricos pizza","phone":"","postal_code":"","street_address":"33rd st","website":""},{"id":"d965b337f5aa370a83c3","latitude":40.850812,"longitude":-73.93096,"name":"salon bellisima","phone":"2125682098","postal_code":"10033","street_address":"388 audubon ave","website":""},{"id":"574f4895c403d1c3d48b","latitude":40.70953,"longitude":-74.014871,"name":"79 street boat basin cafe","phone":"2128759754","postal_code":"10006","street_address":"79 west st","website":""},{"id":"127454f1d76cf168bf66","latitude":40.742603,"longitude":-74.004175,"name":"local search shop","phone":"2223334444","postal_code":"10011","street_address":"95 9th ave","website":""},{"id":"7be1695341407860a379","latitude":40.77402,"longitude":-73.954556,"name":"willys bar  grille","phone":"2127341978","postal_code":"10028","street_address":"1538 2nd ave","website":""},{"id":"2d9dcddbd14969676276","latitude":40.803932,"longitude":-73.951146,"name":"idaho joes","phone":"","postal_code":"10026","street_address":"","website":""},{"id":"5e457f4db8fc38994e44","latitude":40.794125,"longitude":-73.949306,"name":"106th st french dry cleaners","phone":"2122895568","postal_code":"10029","street_address":"1590 madison ave","website":""},{"id":"5645917310097d57fbbf","latitude":40.755986,"longitude":-73.984442,"name":"heartland brewery chophouse","phone":"6463660235","postal_code":"10036","street_address":"127 west 43rd st","website":"heartlandbrewery.com"},{"id":"20d60ae1a8925e119f50","latitude":40.730835,"longitude":-73.990338,"name":"park avenue food court","phone":"2124757032","postal_code":"10003","street_address":"59 4th ave","website":""},{"id":"b0018e0e7deeac3a81e9","latitude":40.77,"longitude":-73.983941,"name":"alans farmland ltd","phone":"2122655886","postal_code":"10023","street_address":"27 columbus ave","website":""},{"id":"0fa2115af57264ad8b67","latitude":40.86473107,"longitude":-73.926847,"name":"crown fried chicken","phone":"2125675333","postal_code":"10040","street_address":"200 dyckman st","website":"crownfriedchicken.com"},{"id":"48fdc0ab11d8a03bd524","latitude":40.76438,"longitude":-73.959636,"name":"bierman and carrington caterers","phone":"2122494594","postal_code":"","street_address":"348 e 66th st","website":""},{"id":"b98c9870c77ce36d2d19","latitude":40.713873,"longitude":-74.003651,"name":"corte cafe","phone":"2127663200","postal_code":"10007","street_address":"2 lafayette st","website":""},{"id":"d8932b111ca720c7f9c8","latitude":40.741994,"longitude":-73.982702,"name":"kally hair designs inc","phone":"2124814848","postal_code":"10016","street_address":"145 e 27th st  3","website":""},{"id":"67fcb64a872926330a28","latitude":40.8205337524,"longitude":-73.9514541626,"name":"tina","phone":"","postal_code":"10019","street_address":"23 w 56th st","website":""},{"id":"1330b5a3bda09905b9b1","latitude":40.740923,"longitude":-73.981622,"name":"360 3rd ave corporation","phone":"2126895155","postal_code":"10016","street_address":"360 3rd ave","website":""},{"id":"9a71caff1475dbe2605a","latitude":40.734659,"longitude":-73.988286,"name":"consumer farmer milk co op","phone":"2124319700","postal_code":"","street_address":"101 e 15th st","website":""},{"id":"970043c08b014d34a7d1","latitude":40.728562,"longitude":-73.983899,"name":"bloom skin care","phone":"6467558591","postal_code":"10009","street_address":"259 e 10th st  2","website":""},{"id":"d16ef09b7895a68db4d0","latitude":40.758614,"longitude":-73.985472,"name":"terrifics bikes  videos","phone":"7184531575","postal_code":"11221","street_address":"1547 broadway","website":""},{"id":"22efa45b75eb9ce2e809","latitude":40.777117,"longitude":-73.957192,"name":"dulce vida cafe and restaurant","phone":"2125352424","postal_code":"10028","street_address":"1219 lexington ave","website":"dulcevidacafe.com\/"},{"id":"5f3fd107090d0ddc658b","latitude":40.713998,"longitude":-73.996882,"name":"tsung sun social club","phone":"2122269414","postal_code":"10002","street_address":"11 division st","website":""},{"id":"70e2d2b2d7f1786eae7c","latitude":40.820841,"longitude":-73.943574,"name":"2657 food center inc","phone":"2128622657","postal_code":"10030","street_address":"2657 frederick douglass blvd","website":""},{"id":"04dece8aca20cb33a696","latitude":40.754238,"longitude":-73.992083,"name":"midoma","phone":"9174322667","postal_code":"10018","street_address":"545 8th ave 750","website":"midoma.com\/"},{"id":"6db65d0f741de2bf9544","latitude":40.72819,"longitude":-73.999397,"name":"terra blues","phone":"2127777776","postal_code":"10012","street_address":"149 bleecker st","website":"terrablues.com\/"},{"id":"ddc8fff24bf02c7c91b2","latitude":40.729679,"longitude":-74.004197,"name":"trattoria toscana","phone":"2126758736","postal_code":"10014","street_address":"64 carmine st","website":"facebook.com\/pages\/Trattoria-Toscana-Greenwich-Village-NYC\/156581041073?sk=info"},{"id":"a71b88265e64d2cbd60c","latitude":40.756199,"longitude":-73.98462,"name":"bxl cafe","phone":"2127680200","postal_code":"10036","street_address":"125 w 43rd st","website":"bxlcafe.com"},{"id":"baaa3725167716f7e6fb","latitude":40.778726,"longitude":-73.974309,"name":"landmark on the park","phone":"2125958410","postal_code":"10023","street_address":"160 central park west","website":"landmarkonthepark.org\/"},{"id":"25485cb3241580f995ff","latitude":40.760559082,"longitude":-73.9903564453,"name":"little town","phone":"2129792337","postal_code":"10036","street_address":"366 w 46th st","website":"unionsq.littletown.com\/index.php"},{"id":"3fe0522fd8a5560f5f5b","latitude":40.749069,"longitude":-73.972689,"name":"mimis nail salon","phone":"2126619768","postal_code":"10017","street_address":"302 e 41st st  2","website":""},{"id":"0b4addd29cb5c481f219","latitude":40.743265,"longitude":-73.982008,"name":"enjoy nail spa","phone":"2122135688","postal_code":"10016","street_address":"148 east 28th st","website":""},{"id":"158632e7566f9e4e47e6","latitude":40.777667,"longitude":-73.956857,"name":"diva nail  spa","phone":"2127346767","postal_code":"10028","street_address":"1227 lexington ave","website":""},{"id":"6fc2b1c0e2f00f1a38fb","latitude":40.718809,"longitude":-74.005059,"name":"tribecafe","phone":"2123430277","postal_code":"10013","street_address":"277 church st","website":"tribecafe.net\/"},{"id":"112a34b7d96b0fb09a2c","latitude":40.717728,"longitude":-73.975622,"name":"mac menamins pub","phone":"","postal_code":"10038","street_address":"17 east river piers","website":""},{"id":"297590beab3f1004cde5","latitude":40.753873,"longitude":-73.986948,"name":"nugent violet","phone":"2123028100","postal_code":"10018","street_address":"1420 broadway","website":""},{"id":"be428df89cec53c29e96","latitude":40.738,"longitude":-73.991,"name":"rosa mexicano   union square","phone":"2125333350x","postal_code":"10003","street_address":"9 e 18th st","website":"rosamexicano.com"},{"id":"1d3a4b0b7c413c45b9b0","latitude":40.775584,"longitude":-73.947157,"name":"ottomanellis cafe","phone":"2127720080","postal_code":"10028","street_address":"1626 york ave","website":"nycotto.com\/"},{"id":"6832ee735f8f8689e672","latitude":40.868196,"longitude":-73.921539,"name":"continental cleaners pro","phone":"2129427233","postal_code":"10034","street_address":"630 west 207th st","website":""},{"id":"1118ef421cd2528394ae","latitude":40.809055,"longitude":-73.948345,"name":"halal cart at w 125 st powell blvd","phone":"","postal_code":"","street_address":"sw corner w 125 st","website":""},{"id":"a505fad1801007e4ad9f","latitude":44.887869,"longitude":-73.755787,"name":"marija unisex hair design","phone":"7183817154","postal_code":"11385","street_address":"68 59 forest ave","website":""},{"id":"add715c06e26e2376757","latitude":40.7068641749,"longitude":-74.0128970146,"name":"traders cafe","phone":"","postal_code":"10004","street_address":"exchange pl","website":""},{"id":"5539fe7435ba1f9046bb","latitude":40.747101,"longitude":-73.985497,"name":"calvins redroom","phone":"2126840086","postal_code":"","street_address":"319 5th ave","website":""},{"id":"ea4cebbdd281e8a59f9e","latitude":40.770043,"longitude":-73.957111,"name":"1 stop cleaners","phone":"2127171680","postal_code":"10021","street_address":"315 e 74th st  2","website":""},{"id":"afbc4bc5ce9efa873074","latitude":42.105868,"longitude":-78.647309,"name":"lulu  po","phone":"9174353745","postal_code":"11205","street_address":"154 carlton ave","website":"luluandpo.com\/"},{"id":"12d08ae7ee851648b6ef","latitude":40.763931,"longitude":-73.978044,"name":"knave","phone":"2122455000","postal_code":"10019","street_address":"119 west 56th st","website":"parkermeridien.com\/eat5.php"},{"id":"068c667d512e21353e5f","latitude":40.807216,"longitude":-73.949727,"name":"sade skincare  cosmetics","phone":"2127494533","postal_code":"10027","street_address":"2046 adam clayton powell junior blvd","website":"sadeskincare.com\/"},{"id":"29c9713fae3cb7dcf13a","latitude":40.747579,"longitude":-73.983263,"name":"new york elegance ent inc","phone":"2126853088","postal_code":"10016","street_address":"180 madison ave  1502","website":""},{"id":"8c6299fc577eb1fdebc3","latitude":40.72333,"longitude":-73.998317,"name":"peep insights  revelations","phone":"9175953450","postal_code":"10012","street_address":"536 broadway 11th fl","website":""},{"id":"514f66e287637c83c413","latitude":40.736197,"longitude":-73.989301,"name":"california lovers","phone":"2125331665","postal_code":"","street_address":"38 union sq e","website":""},{"id":"4273d79e2d1d8b7e35f8","latitude":40.726931,"longitude":-73.984343,"name":"the crooked tree","phone":"2125333299","postal_code":"10009","street_address":"110 saint marks pl","website":"thecrookedtreenyc.com\/"},{"id":"e32c87e66ea3fa035ac2","latitude":40.7078208167,"longitude":-74.00818,"name":"fruit smoothies  bubble tea cart","phone":"","postal_code":"","street_address":"59 william st","website":""},{"id":"063c03b6ee49cbe61a30","latitude":40.724567,"longitude":-73.98373,"name":"ians sex mansion","phone":"","postal_code":"10009","street_address":"","website":""},{"id":"415997bd45fa1b2dafdd","latitude":40.817455,"longitude":-73.95327,"name":"vielkas beauty salon","phone":"2122835001","postal_code":"10027","street_address":"1475 amsterdam ave","website":""},{"id":"f3547c9cf988eeaa7e36","latitude":40.843913,"longitude":-73.939127,"name":"el nuevo caridad","phone":"2127401616","postal_code":"10032","street_address":"620 west 172nd st","website":""},{"id":"6ff3647ae9bcbaa35ddf","latitude":40.82231,"longitude":-73.938586,"name":"african hair braiding","phone":"2122812081","postal_code":"10039","street_address":"200 w 146th st  1","website":""},{"id":"921920eeb41f2d7d2ea9","latitude":40.749067,"longitude":-73.991939,"name":"stage door delicatessens","phone":"2128689655","postal_code":"10001","street_address":"5 penn plz  1","website":"stagedoordeli.com\/"},{"id":"8fe468fd0c20bdb93c3f","latitude":40.7228825251,"longitude":-74.0058577219,"name":"juice pirate","phone":"","postal_code":"10013","street_address":"","website":""},{"id":"f826a455405de7c23a94","latitude":40.706711,"longitude":-74.00856,"name":"diwan khas","phone":"2127859659","postal_code":"10005","street_address":"56 pine st","website":""},{"id":"d465adb772f54a8ddc33","latitude":40.743456,"longitude":-73.993867,"name":"the guilty goose","phone":"2122553727","postal_code":"10011","street_address":"131 west 23rd st","website":"guiltygoose.com"},{"id":"1c8291106aaefc0771db","latitude":40.718994,"longitude":-73.9975869656,"name":"cannoli king","phone":"","postal_code":"","street_address":"148 mulberry st","website":""},{"id":"fcbb2c41bb5834922061","latitude":40.7649324707,"longitude":-73.9875339368,"name":"99 cent pizza","phone":"","postal_code":"10019","street_address":"9th ave","website":""},{"id":"bacd13008b97d7f171bd","latitude":40.744943,"longitude":-73.981938,"name":"natureworks","phone":"2127251411","postal_code":"10016","street_address":"113 east 31st st","website":"natureworksrestaurant.com\/"},{"id":"70aacae4fb64dec99e34","latitude":40.80522,"longitude":-73.966393,"name":"vareli","phone":"2126788585","postal_code":"10025","street_address":"2869 broadway","website":"varelinyc.com"},{"id":"ebed8f08c1a3ac96fc35","latitude":40.756118,"longitude":-73.994118,"name":"albert hall tavern","phone":"6464904803","postal_code":"10018","street_address":"508 9th ave","website":"alberthalltavern.com\/"},{"id":"705fe1489025117686ff","latitude":40.638645,"longitude":-73.9194878,"name":"sallys west indian cuisine restaurant","phone":"2126784680","postal_code":"11234","street_address":"800 columbus ave","website":""},{"id":"7e593ec3f6bb57e7b957","latitude":40.736974,"longitude":-73.993832,"name":"karps pad","phone":"","postal_code":"10011","street_address":"10 west 15th st","website":""},{"id":"172076133eb13d6f8ca8","latitude":40.715293,"longitude":-73.997823,"name":"bubbly tea","phone":"2126083688","postal_code":"10002","street_address":"55 bayard st","website":"mybubblytea.com\/"},{"id":"1d2cfd018c467366d361","latitude":40.77096,"longitude":-73.961961,"name":"ikeno hana","phone":"2127376639","postal_code":"10021","street_address":"1016 lexington ave","website":""},{"id":"8e6497e99a77bbb1dc98","latitude":40.766423,"longitude":-73.956675,"name":"min spa","phone":"2127721176","postal_code":"10021","street_address":"415 e 70th st  70","website":""},{"id":"6cd1cff657b713808dcc","latitude":40.737795,"longitude":-74.000194,"name":"subway","phone":"9145134254","postal_code":"10011","street_address":"162 w 13th st","website":"subway.com"},{"id":"36f5e7b722bb78776327","latitude":40.714545,"longitude":-73.993931,"name":"a san fuzhao restaurant inc","phone":"2123438389","postal_code":"10002","street_address":"7 eldridge st","website":""},{"id":"cd6490e2cf753e15b757","latitude":40.783799,"longitude":-73.980061,"name":"urban spa","phone":"","postal_code":"10024","street_address":"252 west 79th st","website":""},{"id":"6d29360c8d42b10652af","latitude":40.720153,"longitude":-73.984616,"name":"donnybrook","phone":"2122287733","postal_code":"10002","street_address":"35 clinton st","website":"donnybrooknyc.com\/"},{"id":"7dddf30bf48d0de0121e","latitude":40.755559,"longitude":-73.981482,"name":"triomphe","phone":"2124534233","postal_code":"10036","street_address":"49 west 44th st","website":"triompheny.com"},{"id":"e049c1589a787b338342","latitude":40.82233,"longitude":-73.940473,"name":"classic laundry","phone":"9175074865","postal_code":"10039","street_address":"262 west 145th st","website":""},{"id":"c978ab5803e65ac3604e","latitude":40.780475,"longitude":-73.956141,"name":"fine cleaners","phone":"2128280066","postal_code":"10128","street_address":"120 e 87th st  1","website":""},{"id":"c3239d2bf8a6eaf2ba43","latitude":40.7626688395,"longitude":-73.9596575421,"name":"johns pizza 64th street","phone":"","postal_code":"10021","street_address":"","website":""},{"id":"04372e5193513d64c9fc","latitude":40.771969,"longitude":-73.956189,"name":"hawaii sushi japanese restaurant","phone":"2127171780","postal_code":"10075","street_address":"1477 2nd ave","website":""},{"id":"5de2f84bda2bbd79a01f","latitude":40.708614,"longitude":-74.011145,"name":"suspenders","phone":"2127325005","postal_code":"10006","street_address":"111 broadway","website":"suspendersnyc.com"},{"id":"f41a0a1b4ed436983efd","latitude":40.718717,"longitude":-74.005172,"name":"neighborhood gourmet eatery","phone":"2123437390","postal_code":"10013","street_address":"275 church st","website":""},{"id":"3d1affe27a439771460b","latitude":40.837435,"longitude":-73.938812,"name":"hair fashion","phone":"2129232500","postal_code":"10032","street_address":"2104 amsterdam ave  1","website":""},{"id":"9765f89b9f15df4eba8b","latitude":40.721786,"longitude":-73.988543,"name":"heartbeet juicery","phone":"","postal_code":"10002","street_address":"85 stanton st","website":""},{"id":"cd8900a789da325b568e","latitude":40.76353,"longitude":-73.974829,"name":"virgin indian hair","phone":"3232517384","postal_code":"10022","street_address":"37 east 57th st","website":"qualityhairimporters.com\/"},{"id":"7f9925a07041b6aafe29","latitude":40.768443,"longitude":-73.989048,"name":"m b j food services","phone":"2125822144","postal_code":"","street_address":"500 w 56th st","website":""},{"id":"b1ed548ad754e2ff74b5","latitude":40.756507,"longitude":-73.967872,"name":"remedy bar and grill","phone":"2127540277","postal_code":"","street_address":"974 2nd ave","website":""},{"id":"c395ec597e9601918533","latitude":40.758781,"longitude":-73.962225,"name":"splendid cleaners","phone":"2127544835","postal_code":"10022","street_address":"414 east 58th st","website":""},{"id":"76d0aa9cb52d219e0a7e","latitude":40.746566,"longitude":-74.008702,"name":"sushi licious","phone":"2123666286","postal_code":"10011","street_address":"pier 60","website":"sushiliciousny.com\/"},{"id":"90f1a7cc0e6bf8e13393","latitude":40.720435,"longitude":-73.996844,"name":"grotta azzurra","phone":"2129258775","postal_code":"10013","street_address":"177 mulberry st","website":"bluegrotta.com\/"},{"id":"edeba23f215dcc702220","latitude":40.777619,"longitude":-73.945701,"name":"york grill","phone":"2127720291","postal_code":"10128","street_address":"1690 york ave","website":"yorkgrillnyc.com"},{"id":"b25b2abc258539cdb130","latitude":40.728219,"longitude":-73.990705,"name":"ruby 6","phone":"2129790899","postal_code":"10003","street_address":"204 east 6th st","website":"ruby6.com\/"},{"id":"959303d62e27a41f3e5e","latitude":40.709583,"longitude":-73.954821,"name":"zeffs pizzeria","phone":"7185990545","postal_code":"11211","street_address":"312 south 3rd st","website":""},{"id":"656138fbbcefc5e88fed","latitude":40.753878,"longitude":-73.966156,"name":"5 star barbershop","phone":"2127521435","postal_code":"10022","street_address":"400 e 50th st  882","website":""},{"id":"4f475f1321433a0eae23","latitude":40.842865,"longitude":-73.93681,"name":"eustate fiordaliza","phone":"2125430218","postal_code":"10032","street_address":"132 audubon ave","website":""},{"id":"62455b9953c6495e18b9","latitude":40.781938,"longitude":-73.948736,"name":"eves nails","phone":"2123601234","postal_code":"10128","street_address":"1776 2nd ave","website":""},{"id":"816cc9441f491d5c77dd","latitude":40.722502,"longitude":-73.979677,"name":"nublu","phone":"6465465206","postal_code":"10009","street_address":"62 ave c","website":"nublu.net\/"},{"id":"963046dd60f8c6afc006","latitude":40.727165,"longitude":-73.989625,"name":"podunk","phone":"2126777722","postal_code":"10003","street_address":"231 east 5th st","website":""},{"id":"b61d490bb396f3c81ebe","latitude":40.7848348568,"longitude":-73.9475744963,"name":"johnny bananas","phone":"","postal_code":"10128","street_address":"231 e 96th st apt 6r","website":""},{"id":"7c5a626ad1e8591b2b08","latitude":40.808282,"longitude":-73.959844,"name":"haakons hall","phone":"2123004166","postal_code":"10026","street_address":"1187 amsterdam ave","website":"haakonshallny.com"},{"id":"a7687c8b8d59e857e6cb","latitude":40.756474,"longitude":-73.992476,"name":"sky room","phone":"2123801195","postal_code":"10018","street_address":"330 west 40th st 33rd floor","website":"skyroomnyc.com"},{"id":"d14a7480d6e5cc92aaac","latitude":40.774947,"longitude":-73.951049,"name":"felice 83","phone":"2122494080","postal_code":"10028","street_address":"1593 1st ave","website":"felicenyc.com"},{"id":"7242c87a1fd0e13a3c70","latitude":40.757097,"longitude":-73.983297,"name":"dunhill cafe  caterers","phone":"2129448484","postal_code":"10036","street_address":"109 west 45th st","website":"dunhillcafenyc.com\/"},{"id":"f75aa3ae61d682c4592c","latitude":40.724235,"longitude":-73.997785,"name":"skincarelab","phone":"2123343142","postal_code":"10012","street_address":"568 broadway","website":"skincarelab.com\/"},{"id":"10c305af216c07f348e5","latitude":40.863935,"longitude":-73.919334,"name":"new plaza grocery","phone":"2125671390","postal_code":"","street_address":"449 w 206th st","website":""},{"id":"0e54fcaf536babf88f62","latitude":40.756875,"longitude":-73.971614,"name":"michael french cleaners inc","phone":"2123974162","postal_code":"10019","street_address":"150 w 51st st  1","website":""},{"id":"5493093dbcf45c3611c1","latitude":40.732151,"longitude":-73.987026,"name":"sei tomoko salon","phone":"2125336613","postal_code":"10003","street_address":"240 east 13th st","website":"seitomoko.com\/"},{"id":"cf54079242e1a9a2369b","latitude":40.7634614735,"longitude":-73.9622796903,"name":"the tree","phone":"","postal_code":"10065","street_address":"245 e 63rd st  ny 10065","website":""},{"id":"388461c374398989876f","latitude":40.760711,"longitude":-73.973845,"name":"burger heaven","phone":"2127534214","postal_code":"10022","street_address":"536 madison ave","website":"burgerheaven.com\/"},{"id":"0b3d4baf1282152bd007","latitude":40.7646537961,"longitude":-73.9767041186,"name":"7 green  grain","phone":"2127769500","postal_code":"10022","street_address":"875 3rd ave","website":""},{"id":"5d3796c3a56f2c5fd95f","latitude":40.763802,"longitude":-73.9646,"name":"rain restaurant eastside","phone":"2122233669","postal_code":"","street_address":"1059 3rd ave","website":""},{"id":"9c17809b4cc91216878b","latitude":40.758361,"longitude":-73.975177,"name":"istana","phone":"2123036032","postal_code":"10022","street_address":"palace hotel 455 madison ave","website":"newyorkpalace.com\/istana-restaurant"},{"id":"c130f9a82c61817ea462","latitude":40.7199282054,"longitude":-73.9878495821,"name":"hana japanese cuisine","phone":"2123889688","postal_code":"10002","street_address":"111 rivington st","website":"hanacuisine.com"},{"id":"35a7d62afeb911914f8a","latitude":40.764775,"longitude":-73.917178,"name":"antika pizzeria","phone":"7185450555","postal_code":"11103","street_address":"36 08 30th ave","website":"antikapizzeria.com\/"},{"id":"81556b654d41211b888e","latitude":44.912855,"longitude":-73.755853,"name":"sweet peach","phone":"","postal_code":"10310","street_address":"760 forest ave","website":""},{"id":"21d1ffab11280406a221","latitude":40.763989,"longitude":-73.981304,"name":"janis chakler skin care","phone":"6464363518","postal_code":"10019","street_address":"850 7th ave","website":"janischaklerskincare.com\/"},{"id":"c4ec8fa29a9bcb9105f9","latitude":40.741876,"longitude":-74.004752,"name":"buddakan ny","phone":"2129892245","postal_code":"10011","street_address":"75 9th ave","website":"buddakannyc.com"},{"id":"0c1a6c50b58be2a9c977","latitude":40.742559,"longitude":-73.984633,"name":"park ave country club","phone":"2126853636","postal_code":"10016","street_address":"381 park ave s","website":"parkavenuecountryclub.com\/"},{"id":"49963c1597f012224cd3","latitude":40.7175144057,"longitude":-74.0074587461,"name":"gap inc hq cafe 13th flr","phone":"","postal_code":"10013","street_address":"55 thomas st","website":""},{"id":"403d8b3abcf68a598b1b","latitude":40.758876,"longitude":-73.961955,"name":"bistro vendome   nyc","phone":"2129359100","postal_code":"10022","street_address":"405 east 58th st","website":"bistrovendomenyc.com"},{"id":"e568dd1c6c56a06407e7","latitude":40.723448,"longitude":-73.98832,"name":"pinisi bakery ii","phone":"2126733345","postal_code":"10009","street_address":"18 20 first ave","website":""},{"id":"16caa870d812c161df0d","latitude":40.759411,"longitude":-73.976564,"name":"benihana","phone":"2124217144","postal_code":"10022","street_address":"645 5th ave","website":"benihana.com\/"},{"id":"5f7610c17de2faa80011","latitude":40.739284,"longitude":-73.987906,"name":"via emilia","phone":"2125053072","postal_code":"10010","street_address":"47 e 21st st","website":"viaemilia.us"},{"id":"66ef54d76ff989a91d52","latitude":40.76201,"longitude":-73.978533,"name":"starbucks","phone":"2122658610","postal_code":"10105","street_address":"1345 6th ave","website":"starbucks.com\/"},{"id":"b4cfaea6ab59f15359d7","latitude":40.743795,"longitude":-73.98901,"name":"starbucks","phone":"2122136519","postal_code":"10010","street_address":"1140 broadway","website":"starbucks.com\/"},{"id":"7afbbb5d419e24c1352c","latitude":40.721513,"longitude":-73.996607,"name":"the spot by heineken","phone":"","postal_code":"10012","street_address":"201 mulberry st","website":""},{"id":"f662465117c1bbc6d424","latitude":40.7712712516,"longitude":-73.9524481662,"name":"the penthouse","phone":"","postal_code":"10075","street_address":"east 78th st","website":""},{"id":"d3ac2392c0a35690fd7d","latitude":40.857977,"longitude":-73.930904,"name":"calla skin inc   christine deo, esthetician","phone":"2123532720","postal_code":"10010","street_address":"1123 broadway 1009","website":"callaskin.com\/"},{"id":"496bd5b462f08383d880","latitude":40.755802,"longitude":-73.980146,"name":"brasilla restaurant","phone":"2129971158","postal_code":"10036","street_address":"7 west 45th st","website":"viabrasilrestaurant.com\/"},{"id":"4be70c8200676abb38cd","latitude":40.76457,"longitude":-73.973636,"name":"damali nyc   dinair airbrush makeup kits","phone":"2122211169","postal_code":"10036","street_address":"574 5th ave","website":"damalinyc.com\/"},{"id":"c404f617ea60d556830f","latitude":40.712827,"longitude":-73.994442,"name":"honto 88","phone":"","postal_code":"10002","street_address":"60 henry st","website":""},{"id":"ef982262d75fb0cedfbb","latitude":40.739261,"longitude":-73.993372,"name":"birdbad pop up breakfast","phone":"","postal_code":"10011","street_address":"","website":""},{"id":"d9ea3392cd403454ef56","latitude":40.786681,"longitude":-73.95019,"name":"acna pizza corporation","phone":"2128760683","postal_code":"10029","street_address":"1505 lexington ave","website":""},{"id":"37a7843c5e6013033e4e","latitude":40.729098,"longitude":-74.003484,"name":"quinto quarto","phone":"2126759080","postal_code":"10014","street_address":"14 bedford st","website":"quintoquarto.com\/"},{"id":"e3aa0d2df852e58c6b02","latitude":40.77981,"longitude":-73.950336,"name":"l  f cleaners","phone":"2123485134","postal_code":"10128","street_address":"301 east 89th st","website":""},{"id":"4faee22788686f7cd8f6","latitude":40.7366203663,"longitude":-73.9928309704,"name":"creme de la femme","phone":"","postal_code":"10003","street_address":"union sq west","website":""},{"id":"6d9c0d4b1a6ffc903194","latitude":40.780928,"longitude":-73.98477,"name":"the dungeon","phone":"","postal_code":"10025","street_address":"205 w 102 st","website":""},{"id":"dc3525207a412ea059b0","latitude":40.713456,"longitude":-73.994627,"name":"good good taste chinese","phone":"2123859220","postal_code":"10002","street_address":"13 market st","website":""},{"id":"fc0348a1e2cead780b9b","latitude":40.738433,"longitude":-73.982278,"name":"arcadia spa  home","phone":"2122435358","postal_code":"10011","street_address":"249 west 23rd st","website":"arcadianyc.com\/"},{"id":"91a694299efb7c006573","latitude":40.7681605,"longitude":-73.9857731,"name":"morning star restaurant","phone":"2122461593","postal_code":"10019","street_address":"879 9th ave","website":"morningstar57.com\/"},{"id":"6615552a2319a0c73be3","latitude":40.7508413697,"longitude":-73.9922654629,"name":"tasti d lite","phone":"","postal_code":"10119","street_address":"1 penn plz","website":""},{"id":"c23922cb87fbfcaa6637","latitude":40.723158,"longitude":-73.987978,"name":"himalayan cafe inc","phone":"2123580160","postal_code":"10009","street_address":"78 east 1st st","website":""},{"id":"03f3218143769b1b1ba2","latitude":40.744535,"longitude":-74.002902,"name":"bocca di bacco chelsea","phone":"2129898400","postal_code":"10011","street_address":"169 9th ave","website":"nycrg.com\/bocca-di-bacco-chelsea\/"},{"id":"04263db1f752e5a73b4d","latitude":40.72029,"longitude":-73.999807,"name":"cafe integral","phone":"6468015747","postal_code":"10013","street_address":"135 grand st","website":"cafeintegral.com\/"},{"id":"89ba2726e6da7d367a18","latitude":40.79763,"longitude":-73.967908,"name":"elia hair salon","phone":"2123163100","postal_code":"10025","street_address":"850 amsterdam ave","website":"eliasalon.com\/"},{"id":"2a3bfacee8845bc3a286","latitude":40.793667,"longitude":-73.970784,"name":"cafe con leche","phone":"2126787000","postal_code":"10025","street_address":"726 amsterdam ave","website":"rhgnyc.com"},{"id":"92d896eda2e87ea0a4d6","latitude":40.734668,"longitude":-73.979484,"name":"rydis cafe","phone":"","postal_code":"10009","street_address":"","website":""},{"id":"5ad1e3fe12dd131b8c3d","latitude":40.76268,"longitude":-73.993248,"name":"emerald floors","phone":"2123332581","postal_code":"10036","street_address":"666 10th ave","website":"emeraldfloorsandcarpets.com\/"},{"id":"182e0a1825b7bb7869ff","latitude":40.846818,"longitude":-73.935348,"name":"capri restaurant","phone":"2127403110","postal_code":"10033","street_address":"1342 saint nicholas ave","website":""},{"id":"c6663af6f9a5a224310e","latitude":40.737517,"longitude":-73.981141,"name":"absolute laundry  cleaners","phone":"2122544020","postal_code":"10010","street_address":"390 2nd ave","website":""},{"id":"61199043eac7d7c365d6","latitude":40.739866,"longitude":-73.985942,"name":"olive organic spa","phone":"2126742424","postal_code":"10010","street_address":"112 east 23rd st 302","website":"oliveorganicspa.com\/"},{"id":"c90fc78a4d719bdca634","latitude":40.7565765381,"longitude":-73.967300415,"name":"mariachi","phone":"2123191045","postal_code":"10022","street_address":"235 e 53rd st","website":"mariachitogo.com"},{"id":"0d90cb9f525b73e9318c","latitude":40.7378921509,"longitude":-73.9809112549,"name":"rafikis","phone":"","postal_code":"10010","street_address":"e 23rd st  ny 10010","website":""},{"id":"f099b7d99784d6f0cc3f","latitude":40.728714,"longitude":-73.992499,"name":"glam indian hair","phone":"2122134813","postal_code":"10003","street_address":"419 lafayette st","website":"yourglam.com\/"},{"id":"9a80ec5b6db5d5ed3e31","latitude":40.733997,"longitude":-74.008531,"name":"colettes cakes","phone":"2123666530","postal_code":"10014","street_address":"681 washington st","website":"colettescakes.com"},{"id":"af9917617e33c3305471","latitude":40.775222,"longitude":-73.983681,"name":"old johns luncheonette","phone":"2128742700","postal_code":"10023","street_address":"148 west 67th st","website":"oldjohnsluncheonettenyc.com"},{"id":"4091ac4981ae9cad1e1e","latitude":40.711718,"longitude":-73.994175,"name":"food king","phone":"2122332433","postal_code":"10002","street_address":"56 market st","website":""},{"id":"5c3a23b32f73b549cee8","latitude":40.753644,"longitude":-73.974298,"name":"la cucina di antonio","phone":"2129535167","postal_code":"","street_address":"467 lexington ave","website":""},{"id":"c1c54abe684a02b01353","latitude":40.758786,"longitude":-73.978802,"name":"nbc studio tour","phone":"","postal_code":"10112","street_address":"30 rockefeller plz","website":"nbcstudiotour.com\/"},{"id":"7d56970c4fef925adb30","latitude":40.728729,"longitude":-73.988265,"name":"khyber pass","phone":"2124730989","postal_code":"10003","street_address":"34 saint marks pl","website":"orderkhyberpass.com"},{"id":"4aa5022b0ceadb04c75c","latitude":40.788034,"longitude":-73.949306,"name":"lisas nail","phone":"2128283141","postal_code":"10029","street_address":"1557 lexington ave","website":""},{"id":"c239da46fd25a859b58e","latitude":40.78514,"longitude":-73.971071,"name":"barber shop unisex","phone":"7182966944","postal_code":"11421","street_address":"86 50 85th st","website":""},{"id":"1f920022e1cc61b54923","latitude":40.759318,"longitude":-73.962196,"name":"sin bin","phone":"2129809850","postal_code":"10022","street_address":"1074 1st ave","website":"sinbinbar.com\/"},{"id":"ad602d5978bebe3c86e3","latitude":41.43991,"longitude":-74.414349,"name":"residential amenities","phone":"2127853249","postal_code":"10006","street_address":"90 washington st","website":""},{"id":"65142d15b465adc226c6","latitude":40.72982,"longitude":-73.999473,"name":"freshco burrito taco","phone":"2125058899","postal_code":"10012","street_address":"235 sullivan st","website":"happytacoburritonyc.com"},{"id":"7ef0b93f68519c881f5f","latitude":40.78,"longitude":-73.975,"name":"scaletta restaurant","phone":"2127699191","postal_code":"10024","street_address":"50 west 77th st","website":"scalettaristorante.com\/"},{"id":"52d9f396a80b7df3be72","latitude":40.7107110839,"longitude":-74.0114985467,"name":"the coffee bean  tea leaf","phone":"","postal_code":"","street_address":"22 cortlandt st","website":""},{"id":"00a1b90eb9657b4cb259","latitude":40.771557,"longitude":-73.955416,"name":"tina and racheys wild and crazy house party of 2","phone":"","postal_code":"","street_address":"","website":""},{"id":"f7bb0b23ce99cddcd5c3","latitude":40.7223,"longitude":-73.987995,"name":"karaoke boho   orchard","phone":"2127770102","postal_code":"10002","street_address":"196 orchard st","website":"karaokeboho.com\/best-karaoke-bars-and-lounges-nyc\/orchard\/"},{"id":"a71dd0807c2471a01a25","latitude":40.751572,"longitude":-73.987544,"name":"haier america","phone":"2125943330","postal_code":"10018","street_address":"1356 broadway","website":"haieramerica.com\/"},{"id":"6cd2d3d0329a22c882e8","latitude":40.833068,"longitude":-73.94534,"name":"lucky ho lee chinese restaurant","phone":"2122814136","postal_code":"10032","street_address":"3750 broadway","website":""},{"id":"717e0e49e593d5782309","latitude":40.749603,"longitude":-73.979503,"name":"kitano new york","phone":"2128857000","postal_code":"10016","street_address":"66 park ave","website":"kitano.com\/"},{"id":"e252948fe86d5e442e9e","latitude":40.725392,"longitude":-73.987817,"name":"dolores beauty salon","phone":"2124609432","postal_code":"10003","street_address":"133 e 4th st  a","website":""},{"id":"f8e537aaa9fc1573603d","latitude":40.729054,"longitude":-73.986837,"name":"custom hair by catherine","phone":"9174826493","postal_code":"10003","street_address":"321 east 9th st","website":"customhairbycatherine.com\/"},{"id":"29c2699049b9aab452ec","latitude":40.7302244592,"longitude":-73.9864549998,"name":"black hound new york","phone":"2129799505","postal_code":"10003","street_address":"170 2nd ave","website":"blackhoundny.com"},{"id":"ce08653793ec9e3bb36c","latitude":40.7552778,"longitude":-73.9841667,"name":"urban oyster food cart tour of midtown","phone":"3476188687","postal_code":"","street_address":"midtown manhattan","website":"urbanoyster.com"},{"id":"cc92bca1a1d561f94fca","latitude":40.763582,"longitude":-73.992384,"name":"punjabi tadka","phone":"2129560185","postal_code":"10019","street_address":"688 10th ave","website":"punjabitadkany.com\/"},{"id":"f188a16f99d30d1ab5bd","latitude":40.782171,"longitude":-73.95374,"name":"jin nails","phone":"2129965272","postal_code":"10128","street_address":"1364 lexington ave  93","website":""},{"id":"45924c61a6e76401a34f","latitude":40.829216,"longitude":-73.948375,"name":"tonalli caf\u00e9  bar","phone":"2129260399","postal_code":"10031","street_address":"3628 broadway","website":""},{"id":"6f6b97757590826de5d7","latitude":40.810605,"longitude":-73.939359,"name":"the den","phone":"","postal_code":"10037","street_address":"2150 5th ave","website":""},{"id":"e3f9d84c0c989f2e7928","latitude":40.774587,"longitude":-73.957292,"name":"lukes","phone":"2122497070","postal_code":"10075","street_address":"1394 3rd ave","website":"lukesbarandgrill.com\/"},{"id":"5d621f7dba662c3bd64c","latitude":40.767493,"longitude":-73.959318,"name":"la bellezza pizza","phone":"7182534817","postal_code":"","street_address":"1331 2nd ave","website":""},{"id":"054b8b215891c54f41a8","latitude":40.722862,"longitude":-74.000208,"name":"fika espresso bar","phone":"","postal_code":"10012","street_address":"79 mercer st","website":""},{"id":"2ba809ed64609193a1e6","latitude":40.8237046136,"longitude":-73.9413867616,"name":"true blue deli grocery","phone":"2122816100","postal_code":"10039","street_address":"2741 8th ave  ny 10039","website":""},{"id":"f88ee3aa88579f16e210","latitude":40.722307,"longitude":-73.995338,"name":"bellissimo hair spa","phone":"7189377773","postal_code":"10012","street_address":"223 mott st","website":"bellissimohairspa.com\/"},{"id":"9ea3254360d0fe59177e","latitude":40.679083,"longitude":-74.01104,"name":"red hook lobster pound","phone":"7188587650","postal_code":"11231","street_address":"284 van brunt st","website":"redhooklobster.com\/"},{"id":"c9da7732e5f94f87b322","latitude":40.7267074585,"longitude":-73.99168396,"name":"remember the alamo nyc","phone":"","postal_code":"10003","street_address":"","website":""},{"id":"da0ec516b3d625fdfc2e","latitude":40.727479,"longitude":-74.007226,"name":"iguazu day spa","phone":"2126470007","postal_code":"10014","street_address":"350 hudson st","website":"iguazudayspa.com\/"},{"id":"0c5d6be79a2b96456b61","latitude":40.73304,"longitude":-73.98659,"name":"pizzeria draga east village","phone":"2123980011","postal_code":"10003","street_address":"212 e 14th st","website":"yext.com"},{"id":"1d2d6c273e546b239681","latitude":40.723695,"longitude":-74.000033,"name":"buzzfeed conference room","phone":"","postal_code":"","street_address":"","website":""},{"id":"77cb2d237b610f970235","latitude":40.718666,"longitude":-73.999588,"name":"fay da bakery","phone":"2129668934","postal_code":"10013","street_address":"191 centre st","website":"fayda.com\/about\/index.shtml#cid=glbc"},{"id":"334e79cdbc11a2f685f6","latitude":40.705318,"longitude":-74.006108,"name":"20 pine valet","phone":"2127852198","postal_code":"10005","street_address":"20 pine st","website":""},{"id":"3a92d6e626a07ca0c831","latitude":40.780072,"longitude":-73.982784,"name":"siam productions inc","phone":"2127694441","postal_code":"10023","street_address":"253 w 73rd st  3b","website":"siamproductions.com\/"},{"id":"2b679ed1bb56a8316ebe","latitude":40.721954,"longitude":-73.984722,"name":"dunkin donuts","phone":"2123881637","postal_code":"10002","street_address":"250 east houston st","website":"dunkindonuts.com\/"},{"id":"a7b5a3e45020e7d2c451","latitude":40.756055,"longitude":-73.98077,"name":"chipotle mexican grill","phone":"2123912081","postal_code":"10036","street_address":"25 west 45th st","website":"chipotle.com\/"},{"id":"71166fb8c63d67ce7035","latitude":40.8681486629,"longitude":-73.9193941019,"name":"grandpas brick oven pizza","phone":"2123041185","postal_code":"10034","street_address":"4973 broadway","website":"grandpasbrickovenpizza.com"},{"id":"8c6ec50255484050fcfd","latitude":40.708195,"longitude":-74.008268,"name":"maiden lane barber shop inc","phone":"2123449342","postal_code":"10038","street_address":"59 maiden ln  2","website":""},{"id":"8730c7da1759ee4c099a","latitude":40.800044,"longitude":-73.965797,"name":"dunkin donuts","phone":"2122224481","postal_code":"10025","street_address":"929 amsterdam ave","website":"dunkindonuts.com\/"},{"id":"caf4878a5d8f4ec7f940","latitude":40.727457,"longitude":-74.005432,"name":"arrojo studio","phone":"2122427786","postal_code":"10014","street_address":"180 varick st","website":"arrojostudio.com\/"},{"id":"dd3193956b9225d29683","latitude":40.737119,"longitude":-74.005465,"name":"bloomie nails","phone":"6466382727","postal_code":"10001","street_address":"25 8th ave","website":""},{"id":"fcde8f5648cc762b1850","latitude":40.7840318155,"longitude":-73.9777429352,"name":"mcaleers pub  restaurant","phone":"2123627867","postal_code":"10024","street_address":"425 amsterdam ave","website":"mcaleerspub.com"},{"id":"698940b31d7c19c61af8","latitude":40.714269,"longitude":-74.005973,"name":"la estrella del castillo","phone":"7183633387","postal_code":"11225","street_address":"948 nostrand ave","website":""},{"id":"b483c215eb6ef7461d1f","latitude":40.822805565,"longitude":-73.9418077469,"name":"dunkin donuts","phone":"","postal_code":"10039","street_address":"2730 frederick douglass blvd","website":"dunkindonuts.com"},{"id":"0589ed2093a0f6663db6","latitude":40.7137896387,"longitude":-73.9953847426,"name":"dark disco","phone":"","postal_code":"10002","street_address":"","website":""},{"id":"a0c9c6159012c0bda908","latitude":40.714,"longitude":-74.00925,"name":"eamonns","phone":"2129627300","postal_code":"10007","street_address":"41 murray st","website":"eamonns.com"},{"id":"53ce47f44e852dfa7eb9","latitude":40.778298,"longitude":-73.986876,"name":"the fortress of solitude","phone":"","postal_code":"10023","street_address":"","website":""},{"id":"3943a77afed683eba246","latitude":40.762526,"longitude":-73.969026,"name":"food exchange","phone":"2127590656","postal_code":"10022","street_address":"120 east 59th st","website":"foodexchangenyc.com\/"},{"id":"4cdbfceebcc2b31e14b8","latitude":40.734916,"longitude":-74.006267,"name":"upright brew house","phone":"2128109944","postal_code":"10014","street_address":"547 hudson st","website":"uprightbrewhouse.com\/"},{"id":"7ba17e3fcb65db44fd1c","latitude":40.750801,"longitude":-73.971001,"name":"sichuan palace","phone":"2129727377","postal_code":"10017","street_address":"310 e 44th st","website":"sichuanpalace.com\/"},{"id":"ef381ff9832cc3a2c9ac","latitude":40.798784,"longitude":-73.967778,"name":"103 cleaners inc","phone":"2126631789","postal_code":"10025","street_address":"216 w 103rd st  2","website":""},{"id":"366a2082942d3127f23d","latitude":40.752701,"longitude":-73.97301,"name":"hizen japanese restaurant","phone":"2125570299","postal_code":"10017","street_address":"203 e 45th st","website":""},{"id":"9c0f0b5b19aa8cfb8133","latitude":40.740643,"longitude":-73.9758,"name":"alkinco hair company","phone":"2127193070","postal_code":"10001","street_address":"129 west 29th st","website":"alkincohair.com\/"},{"id":"f842424058c476f64b8a","latitude":40.750592,"longitude":-73.985999,"name":"keens steakhouse","phone":"2129473636","postal_code":"10018","street_address":"72 west 36th st","website":"keens.com\/"},{"id":"e450cd9a44301f598fc3","latitude":40.740524292,"longitude":-74.0077514648,"name":"wais and jasons coffee  breakfast cart","phone":"","postal_code":"","street_address":"","website":""},{"id":"b8db2f78bf4def964a83","latitude":40.717252,"longitude":-74.010426,"name":"gigino trattoria","phone":"2124311112","postal_code":"10013","street_address":"323 greenwich st","website":"gigino-trattoria.com"},{"id":"146ef869ece0c4c28400","latitude":40.7206320233,"longitude":-74.0020179749,"name":"founderscard signature event holiday edition","phone":"","postal_code":"10013","street_address":"15 mercer st","website":""},{"id":"a4846eb16e229397657b","latitude":40.6614856167,"longitude":-73.9911648167,"name":"matts pizza patio","phone":"","postal_code":"11215","street_address":"274 20th st","website":""},{"id":"f72cdea0dc62e8180668","latitude":40.773412,"longitude":-73.951676,"name":"gracie mews restaurant","phone":"2128612290","postal_code":"10028","street_address":"1550 1st ave","website":""},{"id":"40804c0726835e705b24","latitude":40.756786,"longitude":-73.965495,"name":"319 east 53rd st","phone":"","postal_code":"10022","street_address":"","website":""},{"id":"3eae1bd69dd33ee6e8b3","latitude":40.712143,"longitude":-73.997316,"name":"great taste bakery","phone":"","postal_code":"10013","street_address":"35 catherine st","website":""},{"id":"c4bb3162177759f61bbf","latitude":40.749735,"longitude":-73.978164,"name":"audry lounge and cafe","phone":"2126861600","postal_code":"10016","street_address":"120 east 39th st","website":"stgilesnewyork.com\/default.aspx?pg=home"},{"id":"9cffab29386ab3abb814","latitude":40.752672,"longitude":-73.97301,"name":"z lounge","phone":"2129498999","postal_code":"","street_address":"203 e 45th st","website":""},{"id":"cf429074f6b45f0ad183","latitude":40.756213,"longitude":-73.968028,"name":"hide chan ramen","phone":"2128131800","postal_code":"10022","street_address":"248 east 52nd st","website":"hidechanramen.com"},{"id":"a979841913234312e0bb","latitude":40.7612683753,"longitude":-73.964381218,"name":"street meat","phone":"","postal_code":"10022","street_address":"60th st","website":""},{"id":"02e833a265c63cb4bb18","latitude":40.733074,"longitude":-73.991102,"name":"lifestyle salon nyc","phone":"2122285577","postal_code":"10003","street_address":"822 broadway","website":"lifestylesalonnyc.com\/"},{"id":"a108d1530c7b71ed68b2","latitude":40.775453,"longitude":-73.956437,"name":"eat = authentic thai kitchen","phone":"2127721494","postal_code":"10028","street_address":"1429 3rd ave","website":"eatthainyc.com\/eat"},{"id":"00fd88e4808694fa1e89","latitude":40.76058,"longitude":-73.99499,"name":"west side steakhouse","phone":"2125644803","postal_code":"10036","street_address":"597 10th ave","website":"westsidesteakhousenyc.com"},{"id":"74c7fe253b69beb1b7d7","latitude":40.782373,"longitude":-73.9820975857,"name":"rs bar and grill","phone":"","postal_code":"10024","street_address":"342 west end ave","website":""},{"id":"d1c5d44daa04b1e54f18","latitude":40.750784,"longitude":-73.980934,"name":"duane reade store new york","phone":"2124480025","postal_code":"10016","street_address":"260 madison ave","website":"walgreens.com\/locator\/Duane-Reade-260-MADISON-AVE-NEW-YORK-NY-10016\/id=14437"},{"id":"cb3e7c4e08ad3517cbd0","latitude":40.792928,"longitude":-73.973423,"name":"breakfast cart at 93 and broadway","phone":"","postal_code":"","street_address":"west 93 and broadway","website":""},{"id":"70f97b0ce676d041ab5c","latitude":40.728951,"longitude":-73.988816,"name":"mamouns","phone":"2123877747","postal_code":"10003","street_address":"22 saint marks pl","website":"mamouns.com\/location.htm"},{"id":"212dffb393f745df801a","latitude":40.739838,"longitude":-73.98957,"name":"brio flatiron","phone":"2126732121","postal_code":"10003","street_address":"920 broadway","website":"brioflatiron.com\/"},{"id":"489829dc4af9326535e7","latitude":40.8358,"longitude":-73.940123,"name":"jimbos hamburger","phone":"2129237300","postal_code":"10032","street_address":"2048 amsterdam ave","website":""},{"id":"db23fce9a08af397c748","latitude":40.7515819181,"longitude":-73.9924120337,"name":"7 eleven","phone":"","postal_code":"10001","street_address":"243 w 34th st","website":"7-eleven.com"},{"id":"347ec86a155ad6c3540c","latitude":40.726791,"longitude":-73.988984,"name":"todays cut","phone":"2127773469","postal_code":"10003","street_address":"300 east 5th st","website":"todayscutnyc.com\/"},{"id":"752b5761410a12ae2b43","latitude":40.763671,"longitude":-73.992321,"name":"foo king chinese kitchen","phone":"2123076701","postal_code":"10019","street_address":"694 10th ave","website":""},{"id":"7b5df6b7891abfab34a3","latitude":40.759784,"longitude":-73.983538,"name":"doble tree executive lounge","phone":"","postal_code":"10019","street_address":"","website":""},{"id":"fbb123a30d24fda230f6","latitude":40.759416,"longitude":-73.962277,"name":"sutton nail","phone":"2123190999","postal_code":"10022","street_address":"1075 1st ave","website":""},{"id":"f7733a00cfb9130c693c","latitude":40.854195,"longitude":-73.928517,"name":"diaz cleaners","phone":"2129233535","postal_code":"10040","street_address":"492 audubon ave","website":""},{"id":"c452b7554c490e109e55","latitude":40.722055,"longitude":-73.988123,"name":"zucco le french diner","phone":"2126775200","postal_code":"10002","street_address":"188 orchard st","website":""},{"id":"dce89e4493504597e50e","latitude":40.769471,"longitude":-73.988952,"name":"casabianca pizzeria","phone":"2123978725","postal_code":"10019","street_address":"503 west 57th st","website":""},{"id":"c6aecf4e5bb7f999299c","latitude":40.7260745775,"longitude":-74.0093696283,"name":"ear inn","phone":"2124319750","postal_code":"10013","street_address":"326 spring st","website":"earinn.com"},{"id":"dff29a6e2f289a170f41","latitude":40.7919410836,"longitude":-73.9382582269,"name":"the real clubhouse   harlem","phone":"","postal_code":"10029","street_address":"2133 first ave","website":""},{"id":"4fdd915f78e5f65c1739","latitude":40.744568,"longitude":-73.981042,"name":"brother jimmys   murray hill","phone":"2127797427","postal_code":"10016","street_address":"181 lexington ave","website":"brotherjimmys.com"},{"id":"d146eeeeb163ddf4e5d4","latitude":40.7366701841,"longitude":-73.9980819482,"name":"saras kitchen","phone":"","postal_code":"11217","street_address":"77 west 7th ave","website":""},{"id":"881383e565b5131b43fc","latitude":40.720329,"longitude":-73.9969,"name":"pats bar","phone":"2126659667","postal_code":"10025","street_address":"998 amsterdam ave  2","website":""},{"id":"27fe7b7441d5ef36e1b1","latitude":40.751969,"longitude":-73.97514,"name":"taos the art of sandwiches salads sweets  stuff","phone":"2128808288","postal_code":"10170","street_address":"151 east 43rd st","website":"taosnyc.com\/"},{"id":"857294066d70cf4edafd","latitude":40.740935,"longitude":-73.990799,"name":"sagaponack bar and grill","phone":"2122292226","postal_code":"10010","street_address":"4 west 22nd st","website":"sagaponacknyc.com"},{"id":"12febb42a54df5b322b0","latitude":40.736032,"longitude":-73.997805,"name":"joe junior","phone":"2129245220","postal_code":"10011","street_address":"482 6th ave","website":""},{"id":"0a91b5e79148b549ce7c","latitude":40.765356,"longitude":-73.977193,"name":"essex dry cleaners","phone":"2122654020","postal_code":"10019","street_address":"125 west 58th st","website":""},{"id":"417d304e6e2794051e86","latitude":40.725581,"longitude":-73.98987,"name":"forty east third salon","phone":"2124734638","postal_code":"10003","street_address":"40 east 3rd st","website":"fortyeastthird.com\/"},{"id":"8d7c7566acf3830b33fa","latitude":40.803398,"longitude":-73.956317,"name":"cafe2115","phone":"2122800552","postal_code":"10026","street_address":"2115 frederick douglass blvd","website":"cafe2115.com\/"},{"id":"ffa549e171d51c488984","latitude":40.735981,"longitude":-73.995477,"name":"taste of tokyo","phone":"2124733333","postal_code":"10011","street_address":"54 west 13th st","website":"chochosanrestaurant.com\/"},{"id":"6791f0170e0901a542be","latitude":40.761547,"longitude":-73.970623,"name":"next step china","phone":"2123073204","postal_code":"10022","street_address":"445 park ave","website":""},{"id":"9c57895647b9e433227d","latitude":40.7912996667,"longitude":-73.9511662,"name":"roger deli house","phone":"2123694922","postal_code":"10029","street_address":"1490 madison ave","website":""},{"id":"62ef85147558aae137f7","latitude":40.747579,"longitude":-73.983263,"name":"fgx international","phone":"2129499000","postal_code":"10016","street_address":"180 madison ave  21","website":""},{"id":"e58f6294a18aca11e5ae","latitude":40.77636,"longitude":-73.981714,"name":"westside restaurant inc","phone":"2127244000","postal_code":"10023","street_address":"2020 broadway","website":""},{"id":"f4526e4e0bb964523c85","latitude":40.739145,"longitude":-73.984254,"name":"crescent news inc","phone":"2124751096","postal_code":"10010","street_address":"162 east 23rd st","website":""},{"id":"5534fe866e17d28e0547","latitude":40.7240065074,"longitude":-73.988096359,"name":"village restaurant  pizza","phone":"2126775500","postal_code":"10003","street_address":"35 first ave","website":""},{"id":"b044778e2e5c9dd74c31","latitude":40.760238,"longitude":-73.984093,"name":"pearls","phone":"2125827380","postal_code":"10019","street_address":"732 7th ave","website":""},{"id":"256f5295cf8414ba0809","latitude":40.744465897,"longitude":-73.9826384984,"name":"555 club","phone":"","postal_code":"10016","street_address":"111 e 30th st","website":""},{"id":"a71337800fa5e3f9aea0","latitude":40.720238,"longitude":-73.990205,"name":"dickson hairshop","phone":"2122605625","postal_code":"10002","street_address":"137 allen st","website":"dicksonhairshop.com\/"},{"id":"2cb8df4298561e750572","latitude":40.745512,"longitude":-73.985508,"name":"mastour galleries","phone":"2126850060","postal_code":"10016","street_address":"15 east 30th st","website":"mastourgalleries.com\/"},{"id":"e85f1261a93eb48f095b","latitude":40.802251,"longitude":-73.967557,"name":"oooh! flowers whisper","phone":"2122220722","postal_code":"10025","street_address":"2780 broadway","website":"academyfloral.com\/"},{"id":"2c3b79947fd842faa64d","latitude":40.7495141029,"longitude":-73.99531,"name":"fresco tortilla taco","phone":"2128688868","postal_code":"10001","street_address":"397 8th ave","website":""},{"id":"d89275263ffb1c01145d","latitude":40.785675637,"longitude":-73.9845085144,"name":"boat basin caf\u00e9","phone":"2124965542","postal_code":"10024","street_address":"390 w 79th st","website":"boatbasincafe.com\/location.html"},{"id":"9e9f0a4a3e10bdc5a3dc","latitude":40.793728,"longitude":-73.97216,"name":"long grain thai  japanese","phone":"2126660888","postal_code":"10025","street_address":"2534 broadway","website":"longgrainnyc.com\/"},{"id":"53626df4972129877165","latitude":40.751712,"longitude":-73.992362,"name":"subway","phone":"2122394212","postal_code":"10019","street_address":"1 penn plz","website":"subway.com\/"},{"id":"cfa895df13cf3a0d5a6f","latitude":40.753116,"longitude":-73.986129,"name":"dong hai restaurant","phone":"2122217237","postal_code":"10018","street_address":"108 west 39th st","website":""},{"id":"639ad2f0202cb51509a9","latitude":40.851018,"longitude":-73.93879,"name":"groom team","phone":"2127959586","postal_code":"10033","street_address":"812 w 181st st  5","website":""},{"id":"0ba6612cfe01cf09a21c","latitude":40.72807,"longitude":-74.003614,"name":"casa de putas","phone":"","postal_code":"10014","street_address":"","website":""},{"id":"8c8d4da92dff0657702d","latitude":40.7493229504,"longitude":-73.9771259592,"name":"30 park avenue","phone":"2125837200","postal_code":"10065","street_address":"583 park ave","website":"583parkave.com\/"},{"id":"8bb5f17f312b71829c10","latitude":40.751731,"longitude":-74.004294,"name":"eagle bar nyc","phone":"6464731866","postal_code":"10001","street_address":"554 west 28th st","website":"eaglenyc.com\/"},{"id":"6ac91f7f00e158eb25f8","latitude":40.728284,"longitude":-73.982251,"name":"diablo royale este","phone":"2123889673","postal_code":"10009","street_address":"167 ave a","website":"west.diabloroyale.com\/"},{"id":"bbe0d1f179136f436887","latitude":40.779768,"longitude":-73.959562,"name":"madison avenue salon","phone":"2125350796","postal_code":"10028","street_address":"1133 madison ave","website":""},{"id":"5b561d72370d35347e3c","latitude":40.729929,"longitude":-73.999384,"name":"shade","phone":"2129826275","postal_code":"10012","street_address":"241 sullivan st","website":""},{"id":"0b6dfce85d74f1b65f52","latitude":40.781951,"longitude":-73.975479,"name":"west 79 street boat basin cafe","phone":"2124965542","postal_code":"10024","street_address":"w 79 st","website":"boatbasincafe.com\/"},{"id":"c571847808a4d0445e94","latitude":40.75146,"longitude":-73.978158,"name":"global technology business publishing","phone":"2122109244","postal_code":"","street_address":"100 park ave","website":""},{"id":"0121d9784c0b79e41a57","latitude":40.804888,"longitude":-73.966106,"name":"duane reade store new york","phone":"2123165113","postal_code":"10025","street_address":"2864 broadway","website":"walgreens.com\/locator\/Duane-Reade-2864-BROADWAY-NEW-YORK-NY-10025\/id=14225"},{"id":"d8ec03cf818626ee599f","latitude":40.750366,"longitude":-73.973872,"name":"leonas","phone":"2124908900","postal_code":"10017","street_address":"212 east 42nd st","website":"newyorkhelmsley.com\/default.aspx?pg=location"},{"id":"cb39e8db1d2ffa292289","latitude":40.7251850277,"longitude":-73.9944780139,"name":"la rumba \"the chicken bus\"","phone":"","postal_code":"10012","street_address":"anywhere theres a rd","website":""},{"id":"a295158fab11e617203d","latitude":40.751123,"longitude":-74.002069,"name":"gastromarket","phone":"2126958080","postal_code":"10001","street_address":"315 10th ave","website":"gastromarket.com\/"},{"id":"0a036f1cd6e767160197","latitude":40.761101,"longitude":-73.987503,"name":"zenith vegetarian restaurant","phone":"2122628080","postal_code":"","street_address":"311 w 48th st","website":"asahizen52.com"},{"id":"7b0512c99f091ec1e7d0","latitude":40.755168,"longitude":-73.979409,"name":"starbucks","phone":"2126871026","postal_code":"10017","street_address":"545 fifth ave","website":"starbucks.com\/"},{"id":"7827ddf5acead6c822a3","latitude":40.747149,"longitude":-74.004724,"name":"wild lily tea room","phone":"2126912258","postal_code":"10011","street_address":"511 west 22nd st","website":"wildlilytearoom.com\/"},{"id":"d792dfd523be8f21475d","latitude":40.743604,"longitude":-74.003508,"name":"sandwhich place","phone":"","postal_code":"10011","street_address":"between 18th and 19th","website":""},{"id":"07e5bb89b71033a92ead","latitude":40.73851,"longitude":-74.00407,"name":"ashtons lair","phone":"","postal_code":"10014","street_address":"","website":""},{"id":"0cb0e9ddd7ee43458549","latitude":40.76768,"longitude":-73.982152,"name":"miny nail salon","phone":"2126941428","postal_code":"10039","street_address":"2916 8th ave  2c","website":""},{"id":"6f955094c82656d2bae3","latitude":40.716195,"longitude":-73.998054,"name":"house of vegetarian","phone":"2122266572","postal_code":"10013","street_address":"68 mott st","website":"vegetariandshouse.com"},{"id":"e2244d9f3532bc31d277","latitude":40.7591692171,"longitude":-73.9830287606,"name":"godiva","phone":"","postal_code":"10022","street_address":"","website":""},{"id":"a3b3c3dd3baa9a2d689c","latitude":40.844364,"longitude":-73.939027,"name":"giodys beauty salon","phone":"2129274224","postal_code":"10032","street_address":"4091 broadway","website":""},{"id":"e90207ddb17afe88c504","latitude":40.714269,"longitude":-74.005973,"name":"town sports international llc","phone":"2122466700","postal_code":"10001","street_address":"5 penn plz  4","website":"investor.mysportsclubs.com\/"},{"id":"3a98dff9e23751fa7d62","latitude":40.7613022795,"longitude":-73.9834018047,"name":"gateway newsstand paramount","phone":"","postal_code":"10019","street_address":"1633 broadway","website":""},{"id":"e5ba65f97d40e06b2f6a","latitude":40.764248,"longitude":-73.971553,"name":"central park conservancy","phone":"2123106600","postal_code":"10022","street_address":"14 e 60th st","website":"centralparknyc.org\/"},{"id":"7b98d5d41cc3c71f0160","latitude":40.741844,"longitude":-73.993237,"name":"starbucks","phone":"2126911948","postal_code":"10010","street_address":"684 ave of the americas","website":"starbucks.com\/"},{"id":"a10b605748231878b17d","latitude":40.714269,"longitude":-74.005973,"name":"danny brown wine bar  kitchen","phone":"7182612144","postal_code":"11375","street_address":"104 02 metropolitan ave","website":"dannybrownwinekitchen.com\/"},{"id":"2de29d2a0a9510460dc4","latitude":40.7176792227,"longitude":-73.9881594879,"name":"night wine bar","phone":"","postal_code":"10002","street_address":"118 essex st","website":""},{"id":"d6c4b56769b4f0793c88","latitude":42.148883,"longitude":-77.059878,"name":"11 riverside valet","phone":"2128732403","postal_code":"10023","street_address":"11 riverside drive","website":""},{"id":"2403ede95907d8dee7fd","latitude":40.707558,"longitude":-74.001026,"name":"dodo cafe","phone":"2126087048","postal_code":"10038","street_address":"45 peck slip","website":"dodocafe.blogspot.com\/"},{"id":"4dc86bde150f1c76d112","latitude":40.787856,"longitude":-73.953867,"name":"cafe sinai","phone":"2129967500","postal_code":"10029","street_address":"1396 madison ave","website":""},{"id":"54ad6018affe292bc3f9","latitude":40.78051,"longitude":-73.95904,"name":"prestige cleaners","phone":"2122497222","postal_code":"10028","street_address":"1161 madison ave","website":""},{"id":"e9fa839672fa2bdac25e","latitude":40.7681119849,"longitude":-73.9739512643,"name":"wollman smoothie","phone":"","postal_code":"10019","street_address":"","website":""},{"id":"52397c32215de75f8e64","latitude":40.74466,"longitude":-73.97614,"name":"twin rainbow cleaners","phone":"2125320082","postal_code":"10016","street_address":"617 2nd ave  a","website":""},{"id":"2824c8d3aa45422bc171","latitude":40.79797782,"longitude":-73.9624413453,"name":"johal deli","phone":"","postal_code":"","street_address":"945 columbus","website":""},{"id":"4b306670a8e466b819c7","latitude":40.776947,"longitude":-73.952405,"name":"supercuts","phone":"2127176363","postal_code":"10028","street_address":"1632 2nd ave 1636","website":"supercuts.com\/"},{"id":"33d19eb757f4bf90bb36","latitude":40.75898,"longitude":-73.980014,"name":"liberty deli","phone":"2125868060","postal_code":"10112","street_address":"30 rockefeller plz","website":"mrsfields.com\/"},{"id":"d68d6a09cd09c4fef8cb","latitude":40.782472,"longitude":-73.980811,"name":"west branch","phone":"2127776764","postal_code":"10024","street_address":"2178 broadway","website":"thewestbranchnyc.com\/"},{"id":"20d3e1003eddd55a7600","latitude":40.74865,"longitude":-73.987431,"name":"fork and spoon","phone":"","postal_code":"","street_address":"","website":""},{"id":"bf974619052b6d78f953","latitude":40.740914,"longitude":-73.988443,"name":"natural deli","phone":"2124750073","postal_code":"10010","street_address":"10 east 23rd st","website":""},{"id":"57989e9049edc4320434","latitude":40.750174,"longitude":-73.982197,"name":"washoku cafe","phone":"2126862233","postal_code":"10016","street_address":"9 e 37th st  1","website":"washokuny.com\/"},{"id":"b2d5c0480c69af39f1ca","latitude":40.829598,"longitude":-73.948139,"name":"new happiness restaurant","phone":"2129260888","postal_code":"10031","street_address":"3640 broadway","website":""},{"id":"0b5c15b0912e2ea7365b","latitude":40.770308,"longitude":-73.963961,"name":"dormer medical spa","phone":"6312045151","postal_code":"10021","street_address":"121 east 71st st","website":"dormermedicalspa.com\/"},{"id":"d33e689592f1ae8fd289","latitude":40.7427172496,"longitude":-73.9889019728,"name":"asiadog","phone":"","postal_code":"10010","street_address":"mad sq eats","website":""},{"id":"1b0b6786ac6dc11b770e","latitude":40.758129,"longitude":-73.977586,"name":"afredo ristorante","phone":"","postal_code":"10020","street_address":"","website":""},{"id":"aa0d24e7f2292b74363c","latitude":40.740043,"longitude":-73.993082,"name":"sala19","phone":"2122292300","postal_code":"10011","street_address":"35 west 19th st","website":"salaonenine.com"},{"id":"62cf4c0cfe1e8432f076","latitude":40.725292,"longitude":-73.991111,"name":"impri nails","phone":"2124903330","postal_code":"10017","street_address":"20 e 42nd st  2","website":""},{"id":"1dae3a8f02f730c3528d","latitude":40.7444658651,"longitude":-73.981180747,"name":"da giulio","phone":"2128892939","postal_code":"10016","street_address":"176 lexington ave","website":"dagiuliony.com"},{"id":"a1dc63b685c5b2efa487","latitude":40.78389,"longitude":-73.950282,"name":"carnegie park swim  health club","phone":"2124230300","postal_code":"10128","street_address":"200 e 94th st  1","website":""},{"id":"d2004b7628522b4822e0","latitude":40.769366,"longitude":-73.968103,"name":"paula zdovc salon","phone":"2125356878","postal_code":"10065","street_address":"20 east 68th st 201","website":"paulazdovcsalon.com\/"},{"id":"1372726dcf5611fcfa37","latitude":40.722301,"longitude":-73.991854,"name":"205 bar","phone":"2124776688","postal_code":"10002","street_address":"205 chrystie st","website":""},{"id":"8c709f7fb50211f8099d","latitude":40.749986,"longitude":-73.990032,"name":"blarney rock pub","phone":"2129470825","postal_code":"10001","street_address":"137 west 33rd st","website":"blarneyrockny.com\/"},{"id":"5541264197be590e1ba5","latitude":40.7223055324,"longitude":-73.983677283,"name":"seamless foodisherenyc event","phone":"","postal_code":"","street_address":"25 ave b","website":""},{"id":"ad2f4a9abb359de819fa","latitude":40.798195,"longitude":-73.969178,"name":"feng nail salon","phone":"2128654868","postal_code":"10025","street_address":"2668 broadway","website":""},{"id":"20cecb1e6aac3b994d1f","latitude":40.76703,"longitude":-73.956742,"name":"fratelli brick oven pizza  wine bar","phone":"2122496093","postal_code":"10021","street_address":"1317 first ave","website":""},{"id":"be7a70c5c91599a2681f","latitude":40.728738,"longitude":-74.000841,"name":"slide","phone":"2127779077","postal_code":"10012","street_address":"174 bleecker st","website":"sliderestaurant.com\/"},{"id":"0c31c9b7e2078507e40f","latitude":40.7302670102,"longitude":-73.9997327328,"name":"j  b express","phone":"2124754859","postal_code":"10012","street_address":"123 w 3rd st","website":""},{"id":"fa61328a95113adea64a","latitude":40.715097,"longitude":-74.009359,"name":"smyth tribeca, a thompson hotel","phone":"2125877000","postal_code":"10007","street_address":"85 west broadway","website":"thompsonhotels.com\/hotels\/nyc\/smyth-tribeca"},{"id":"708e0b1a77a886d85497","latitude":40.73353,"longitude":-74.004423,"name":"bread  pastry cafe","phone":"2126209977","postal_code":"10014","street_address":"330 bleecker st","website":"breadpastrycafecatering.com"},{"id":"b68633438f5e18d97166","latitude":40.806656,"longitude":-73.943633,"name":"hair station inc","phone":"2128664070","postal_code":"10027","street_address":"44 west 125th st","website":""},{"id":"e9f7d177a35de4a21421","latitude":40.7270883335,"longitude":-73.9797344631,"name":"dream baby","phone":"6468073754","postal_code":"10009","street_address":"162 ave b","website":""},{"id":"06eeae03217cef69eeb5","latitude":40.800005,"longitude":-73.96801,"name":"mcdonalds","phone":"2122228714","postal_code":"10025","street_address":"2726 broadway","website":"mcstate.com\/31749"},{"id":"c6e529b125fbad0a11f9","latitude":40.754865,"longitude":-73.989653,"name":"new york festivals","phone":"2129898739","postal_code":"","street_address":"260 w 39th st","website":"iloveny.com\/search\/events_index.asp"},{"id":"bb19fa24ef5f523a89f4","latitude":40.732244,"longitude":-73.988145,"name":"99 miles to philly","phone":"2122532700","postal_code":"10003","street_address":"94 3rd ave","website":"99milestophilly.com\/"},{"id":"113fb3f592cf0a77cecb","latitude":40.760561,"longitude":-73.975934,"name":"the modern   bar room","phone":"","postal_code":"","street_address":"9 w 53rd st","website":""},{"id":"8e8b126ad1259ecc2c59","latitude":40.758987,"longitude":-73.989706,"name":"birdland jazz club","phone":"2125813080","postal_code":"10036","street_address":"315 west 44th st","website":"birdlandjazz.com\/"},{"id":"0e098c76b0efe3c6df31","latitude":40.773436,"longitude":-73.963888,"name":"untitled","phone":"2125703670","postal_code":"10021","street_address":"945 madison ave","website":"untitledatthewhitney.com\/"},{"id":"86ea4fd41e60bdda40be","latitude":40.7237051958,"longitude":-73.9930031359,"name":"professional dinner in our loft","phone":"","postal_code":"10003","street_address":"","website":""},{"id":"0ed47c9563d541ebb66e","latitude":40.711516,"longitude":-74.008613,"name":"nysc","phone":"","postal_code":"10007","street_address":"217 broadway","website":"mysportsclubs.com\/"},{"id":"d6adc479fe4a7dce6f55","latitude":40.783594,"longitude":-73.978164,"name":"crane club","phone":"2128773097","postal_code":"10024","street_address":"408 amsterdam ave","website":""},{"id":"28777f0e81feb40aac12","latitude":40.797947,"longitude":-73.940021,"name":"82 lugan food corporation","phone":"2124230447","postal_code":"10035","street_address":"2125 3rd ave","website":""},{"id":"c6fae3d07980b0c77901","latitude":40.761174,"longitude":-73.975663,"name":"university club","phone":"2122472100","postal_code":"10019","street_address":"1 w 54th st","website":"universityclubny.org"},{"id":"e797e38b2aaf5cfeb4f4","latitude":40.783513,"longitude":-73.947327,"name":"95 super clean","phone":"2123691108","postal_code":"10128","street_address":"313 east 95th st","website":""},{"id":"c1bfc1be43779d453a5f","latitude":40.728365,"longitude":-73.985277,"name":"the immigrant tap room","phone":"2126772545","postal_code":"10003","street_address":"341 east 9th st","website":"theimmigrantnyc.com"},{"id":"2ba120e7bd5e5b1b63a0","latitude":40.738392,"longitude":-74.000921,"name":"the garden","phone":"","postal_code":"10011","street_address":"213 w 13th st","website":""},{"id":"493f5e2798de851ec3b2","latitude":40.758207,"longitude":-73.992323,"name":"pick a bagel","phone":"2127928008","postal_code":"10036","street_address":"360 w 42nd st","website":"pickabagel42ndstreetnyc.com"},{"id":"4666f4a327f82bdedad4","latitude":40.769901,"longitude":-73.968904,"name":"boutique de la cuisine","phone":"2127374831","postal_code":"10065","street_address":"33 1 2 e 68th st","website":""},{"id":"f07ae92f03178dfb78dd","latitude":40.756223,"longitude":-73.980794,"name":"susanas beauty salon","phone":"2127680945","postal_code":"10036","street_address":"55 w 45th st  2","website":""},{"id":"b1e423a5a3b492af0e6a","latitude":40.720675,"longitude":-73.989879,"name":"day day nail inc","phone":"2123758088","postal_code":"10002","street_address":"150 allen st","website":""},{"id":"8c8ee0cbd50146e49676","latitude":40.7944871049,"longitude":-73.9396531578,"name":"wallahs bodega","phone":"","postal_code":"10029","street_address":"","website":""},{"id":"e06dd73a03f255a877de","latitude":40.761401,"longitude":-73.990043,"name":"saigon 9 west cafe","phone":"2127579813","postal_code":"10036","street_address":"358 west 47th st","website":""},{"id":"7bba4bc6b9212ba9270e","latitude":40.784615,"longitude":-73.979339,"name":"i style salon","phone":"2125019225","postal_code":"10024","street_address":"2242 broadway","website":""},{"id":"814cdeda4eb865db4c62","latitude":40.758003,"longitude":-73.976393,"name":"american festival cafe","phone":"2122466669","postal_code":"10020","street_address":"20 west 50th st","website":""},{"id":"5ec9bf33e078638c044e","latitude":40.744872,"longitude":-73.983091,"name":"p  p brothers","phone":"","postal_code":"10022","street_address":"450 park ave  24","website":""},{"id":"5fa701ee3e112693bcbe","latitude":40.762901,"longitude":-73.978302,"name":"allegria","phone":"2129567755","postal_code":"","street_address":"1350 ave of the americas","website":""},{"id":"d13d1f7949747dcf68ff","latitude":40.800449,"longitude":-73.946416,"name":"empire corner ii","phone":"2124105756","postal_code":"10029","street_address":"1415 5th ave","website":""},{"id":"612a0d8004ac94ad4abc","latitude":40.740622,"longitude":-74.000653,"name":"the grey dog","phone":"2122292345","postal_code":"10011","street_address":"242 west 16th st","website":"thegreydog.com\/"},{"id":"8f218f0fea875da7a9ae","latitude":40.736879,"longitude":-73.993613,"name":"union cleaners","phone":"2123379987","postal_code":"10011","street_address":"20 w 15th st  a","website":""},{"id":"214d487cd48b3575c0c7","latitude":40.71995,"longitude":-74.00626,"name":"myriad restaurant group","phone":"2122199500","postal_code":"10013","street_address":"249 west broadway suite 2e","website":"myriadrestaurantgroup.com\/"},{"id":"c5f48fcf9050c929f881","latitude":40.743335,"longitude":-74.004972,"name":"3 squares studio","phone":"9178473384","postal_code":"10011","street_address":"444 west 17th st","website":"threesquaresstudio.com\/"},{"id":"6b928dccea745cf00d1a","latitude":40.7145660273,"longitude":-73.9902082971,"name":"1 essex st","phone":"","postal_code":"10002","street_address":"1 essex st","website":""},{"id":"a2d4b0cc84c7c2a88ea5","latitude":40.7290176249,"longitude":-73.9781963396,"name":"subway","phone":"2122600245","postal_code":"10009","street_address":"400 e 14th st","website":"subway.com\/"},{"id":"be6bac74a9d485892d9f","latitude":40.732286,"longitude":-73.999279,"name":"babbo ristorante","phone":"2127770303","postal_code":"10011","street_address":"110 waverly pl","website":"babbonyc.com"},{"id":"96a5da90b9cdd16abd53","latitude":40.7624777188,"longitude":-73.9685196543,"name":"vegan picnic","phone":"","postal_code":"","street_address":"","website":""},{"id":"2d14b78399a4e163288c","latitude":40.7744588552,"longitude":-73.9805379555,"name":"joanne restaurant","phone":"9172617262","postal_code":"10023","street_address":"70 w 68th st","website":""},{"id":"39a11b0592fb2cea45af","latitude":40.74465,"longitude":-73.992705,"name":"varietal","phone":"2126331800","postal_code":"10001","street_address":"138 w 25th st","website":"varietal.com\/"},{"id":"fb279d3ea5662a0f1255","latitude":40.706501,"longitude":-74.0099,"name":"mangia caterers and restaurants","phone":"2124254040","postal_code":"10005","street_address":"40 wall st","website":""},{"id":"bc27b034a8686dc4416d","latitude":41.43991,"longitude":-74.414349,"name":"90 w","phone":"2127859090","postal_code":"10006","street_address":"90 washington st","website":"90wnewyork.com\/"},{"id":"3a3adf2534e05d8fcca2","latitude":40.739563,"longitude":-73.989826,"name":"eau","phone":"2123588647","postal_code":"10010","street_address":"913 broadway","website":""},{"id":"aab87505434c1e3c1f38","latitude":40.754109,"longitude":-73.993495,"name":"pono","phone":"8663367666","postal_code":"10018","street_address":"347 west 36th st suite 405","website":"ponobyjoangoodman.com\/"},{"id":"41a2df2a30c36eae7441","latitude":40.803703,"longitude":-73.96698,"name":"sing yat cleaners corporation","phone":"2128656363","postal_code":"10025","street_address":"2808 broadway","website":""},{"id":"284b7ad91a8d7f62660c","latitude":40.8658821223,"longitude":-73.9278160178,"name":"majas tapas  bar","phone":"","postal_code":"10034","street_address":"229 dyckman st","website":""},{"id":"f1400fcb53b34082ba46","latitude":40.75698,"longitude":-73.97624,"name":"au croissant and gourmet","phone":"2127506970","postal_code":"","street_address":"425 madison ave","website":""},{"id":"85190e0545c064352980","latitude":40.72296,"longitude":-74.011509,"name":"mirzos pizza","phone":"2129417161","postal_code":"","street_address":"264 west st","website":""},{"id":"4cadb8d41e8e2ab0d61b","latitude":40.711246,"longitude":-74.006359,"name":"thread eyebrow salon","phone":"2126089232","postal_code":"10038","street_address":"140 nassau st","website":"threadsalon.com\/"},{"id":"36d476637c9205913760","latitude":40.755873,"longitude":-73.969204,"name":"wild ginger","phone":"2128298000","postal_code":"10022","street_address":"226 east 51st st","website":"wildgingernyc.net\/"},{"id":"d505d216e5990cdd1500","latitude":40.7408679491,"longitude":-74.0069210529,"name":"cafe grayskull","phone":"","postal_code":"10014","street_address":"416 w 13th st","website":""}]